[{"lat":"34.1274336","lng":"-118.0552802","id":7712280,"name":"ADVANTIS RIDE - ARCADIA","phone":"(626) 445-0055","address":"1041 S. Baldwin Ave.","state":"CA","city":"Arcadia","postal":"91007","priority":1},{"lat":"34.1464143","lng":"-118.2544159","id":7712281,"name":"ADVANTIS RIDE - GLENDALE","phone":"(818) 244-8855","address":"107 E. Broadway","state":"CA","city":"Glendale","postal":"91205","priority":1},{"lat":"34.0834221","lng":"-118.3502907","id":7712282,"name":"ADVANTIS-L.A","address":"7362 Melrose Ave.","state":"CA","city":"Los Angeles","postal":"90046","priority":1},{"lat":"40.6962161","lng":"-89.6129695","id":7712283,"name":"AIRWAVES SKATEBOARDS","phone":"(309) 681-1800","address":"1218 W. Bradley Ave.","state":"IL","city":"Peoria","postal":"61606","priority":1},{"lat":"35.6274952","lng":"-120.6903573","id":7712284,"name":"ALLIANCE BOARD COMPANY","phone":"(805) 238-2600","address":"1233 Park St.","state":"CA","city":"Paso Robles","postal":"93446","priority":1},{"lat":"39.0041724","lng":"-77.4297219","id":7712285,"name":"ALPINE SKI SHOP","phone":"(703) 444-7844","address":"21999 Shaw Rd.","state":"VA","city":"Sterling","postal":"20164","priority":1},{"lat":"38.8624195","lng":"-77.277203","id":7712286,"name":"ALPINE SKI SHOP - FAIRFAX","phone":"703-385-7669","address":"9629 Fairfax Blvd.","state":"VA","city":"Fairfax","postal":"22031","priority":1},{"lat":"34.0134017","lng":"-84.5731084","id":7712287,"name":"AMBUSH BOARDING COMPANY","phone":"(770) 420-9111","address":"2555 Cobb Place Lane","state":"GA","city":"Kennesaw","postal":"30144","priority":1},{"lat":"21.3133596","lng":"-157.8644859","id":7712288,"name":"APB SKATESHOP LLC","phone":"(808) 585-8538","address":"185 N. King Street","state":"HI","city":"Honolulu","postal":"96817","priority":1},{"lat":"43.7846471","lng":"-88.4484513","id":7712289,"name":"ATTITUDE SPORTS","phone":"(920) 923-2323","address":"209A N. Macy St.","state":"WI","city":"Fond Du Lac","postal":"54935","priority":1},{"lat":"40.0738881","lng":"-74.0790069","id":7712290,"name":"BAJA EAST SURF SHOP","phone":"(732) 892-9400","address":"2600 Bridge Ave.","state":"NJ","city":"Point Pleasant Beach","postal":"08742","priority":1},{"lat":"34.0684133","lng":"-117.2066782","id":7712291,"name":"BANNED BOARD SHOP-ARIZONA ST","phone":"(909) 791-7070","address":"1200 Arizona St  Unit B5","state":"CA","city":"Redlands","postal":"92373","priority":1},{"lat":"33.9926412","lng":"-117.1537775","id":7712292,"name":"BANNED BOARD SHOP-REDLANDS2","phone":"(909) 654-6161","address":"7008 Redlands Blvd","state":"CA","city":"Redlands","postal":"92373","priority":1},{"lat":"41.2668792","lng":"-96.0682503","id":7712293,"name":"BC BOARD SPORTS -OMAHA","phone":"(402) 333-3400","address":"10000 California St. Ste. 3432","state":"NE","city":"Omaha","postal":"68114","priority":1},{"lat":"41.2295912","lng":"-96.1344744","id":7712294,"name":"BC BOARDSPORTS","phone":"(402) 333-3400","address":"3001 S. 144th St. Ste. 1017","state":"NE","city":"Omaha","postal":"68114","priority":1},{"lat":"48.7859281","lng":"-122.4906249","id":7712295,"name":"BC SURF & SPORT - BELLINGHAM","phone":"(360) 715-2006","address":"1 Bellis Fair Pkwy. Ste. 330","state":"WA","city":"Bellingham","postal":"98226","priority":1},{"lat":"40.015817","lng":"-105.2578581","id":7712296,"name":"BC SURF & SPORT - BOULDER","phone":"303-440-6030","address":"1600 28th St. Unit 1200","state":"CO","city":"Boulder","postal":"80301","priority":1},{"lat":"39.9338818","lng":"-105.1334334","id":7712297,"name":"BC SURF & SPORT - BROOMFIELD","phone":"(720) 887-2444","address":"1 W. Flatiron Cir. Suite #408","state":"CO","city":"Broomfield","postal":"80021","priority":1},{"lat":"34.0647052","lng":"-83.9841147","id":7712298,"name":"BC SURF & SPORT - BUFORD","phone":"(770) 945-9969","address":"3333 Buford Dr. N.E. Ste. 2019-B","state":"GA","city":"Buford","postal":"30519","priority":1},{"lat":"38.947972","lng":"-104.7951786","id":7712299,"name":"BC SURF & SPORT - COLORADO SPR","phone":"(719) 590-7873","address":"1710 Briargate Blvd.Sp# 495#3 - Chapel Hills Mall","state":"CO","city":"Colorado Springs","postal":"80920","priority":1},{"lat":"39.0916904","lng":"-108.6029569","id":7712300,"name":"BC SURF & SPORT - GRAND JNCTN","phone":"970-241-0376","address":"2424 Hwy. 6 and 50Suite #0322","state":"CO","city":"Grand Junction","postal":"81505","priority":1},{"lat":"39.6119332","lng":"-105.0955648","id":7712301,"name":"BC SURF & SPORT - LITTLETON","phone":"(303) 972-1300","address":"8501 W. Bowles Ave.","state":"CO","city":"Littleton","postal":"80123","priority":1},{"lat":"39.6958048","lng":"-104.9954769","id":7712302,"name":"BC SURF & SPORT - LITTLETON #2","address":"700 W. Mississippi Ave.Suite# A7","state":"CO","city":"Denver","postal":"80223","priority":1},{"lat":"39.5653317","lng":"-104.8735349","id":7712303,"name":"BC SURF & SPORT - LONETREE","address":"8678 Park Meadows Center Dr.","state":"CO","city":"Lone Tree","postal":"80124","priority":1},{"lat":"47.8276689","lng":"-122.2741425","id":7712304,"name":"BC SURF & SPORT - LYNNWOOD","phone":"(425) 712-9661","address":"3000 184th St. S.W.Unit# 104","state":"WA","city":"Lynnwood","postal":"98037","priority":1},{"lat":"40.5622254","lng":"-111.8941517","id":7712305,"name":"BC SURF & SPORT - SANDY","phone":"(801) 523-9270","address":"10450 S. State St.Unit# 2408","state":"UT","city":"Sandy","postal":"84070","priority":1},{"lat":"47.6616907","lng":"-122.3130039","id":7712306,"name":"BC SURF & SPORT - SEATTLE","phone":"206-547-5501","address":"4514 University Wy. NE","state":"WA","city":"Seattle","postal":"98105","priority":1},{"lat":"43.067769","lng":"-76.1729922","id":7712307,"name":"BC SURF & SPORT - SYRACUSE","address":"1 Destiny USA Dr.Suite# B-115","state":"NY","city":"Syracuse","postal":"13204","priority":1},{"lat":"26.6476851","lng":"-80.2090715","id":7712308,"name":"BC SURF & SPORT - WELLINGTON","phone":"561-422-0411","address":"10300 W. Forest Blvd.Suite# 214","state":"FL","city":"Wellington","postal":"33414","priority":1},{"lat":"40.692861","lng":"-111.955197","id":7712309,"name":"BC SURF & SPORT - WEST VALLEY","address":"#7 - Valley Fair Mall3601 South 2700 West","state":"UT","city":"West Valley","postal":"84119","priority":1},{"lat":"39.8593161","lng":"-105.0615325","id":7712310,"name":"BC SURF & SPORT - WESTMINSTER","phone":"(303) 426-1300","address":"5433 W. 88th Ave.","state":"CO","city":"Westminster","postal":"80030","priority":1},{"lat":"26.1501166","lng":"-80.1201329","id":7712311,"name":"BC SURF & SPORT FT. LAUDERDALE","phone":"(954) 564-0202","address":"1701 N. Federal Highway","state":"FL","city":"Fort Lauderdale","postal":"33305","priority":1},{"lat":"39.6958048","lng":"-104.9954769","id":7712312,"name":"BC SURF & SPORT- DENVER","address":"700 W. Mississippi Ave.Suite #A7","state":"CO","city":"Denver","postal":"80223","priority":1},{"lat":"25.787925","lng":"-80.3804792","id":7712313,"name":"BC SURF & SPORT- MIAMI","phone":"(305) 715-9912","address":"11401 NW 12th St. #134","state":"FL","city":"Miami","postal":"33172","priority":1},{"lat":"40.6348832","lng":"-111.885434","id":7712314,"name":"BC SURF SPORT - MURRAY","phone":"(801) 261-5750","address":"6191 S. State St. Ste. 1260","state":"UT","city":"Murray","postal":"84107","priority":1},{"lat":"34.4685531","lng":"-114.3425696","id":7712315,"name":"BEACHCOMBERS SKI & SPORT","phone":"928-855-0500","address":"181 Swanson Avenue","state":"AZ","city":"Lake Havasu City","postal":"86403","priority":1},{"lat":"30.4035131","lng":"-86.6056363","id":7712316,"name":"PLUS SKATESHOP","phone":"(850) 244-6695","address":"186 Miracle Strip Pkwy. S.E","state":"FL","city":"Fort Walton Beach","postal":"32548","priority":1},{"lat":"28.552918","lng":"-81.3584965","id":7712317,"name":"PLUS SKATESHOP - ORLANDO","address":"1646 E. Colonial Dr.","state":"FL","city":"Orlando","postal":"32803","priority":1},{"lat":"42.161456","lng":"-70.863063","id":7712318,"name":"BIKES BOARDS BLADES","phone":"(781) 659-8887","address":"340 Washington St.","state":"MA","city":"Norwell","postal":"02061","priority":1},{"lat":"36.6759724","lng":"-121.653866","id":7712319,"name":"BILL'S WHEELS - SALINAS","phone":"(408) 443-0415","address":"25 E. Gabilan Street","state":"CA","city":"Salinas","postal":"93901","priority":1},{"lat":"36.9801988","lng":"-122.0089537","id":7712320,"name":"BILL'S WHEELS - SANTA CRUZ","phone":"(831) 469-0904","address":"1240 Soquel Ave.","state":"CA","city":"Santa Cruz","postal":"95062","priority":1},{"lat":"34.2054121","lng":"-118.2260957","id":7712321,"name":"BILLY'S SKI & SPORT - MONTROSE","phone":"(818) 249-3600","address":"2227 Honolulu Ave.","state":"CA","city":"Montrose","postal":"91020","priority":1},{"lat":"34.84586","lng":"-82.3680099","id":7712322,"name":"BLAZER SURF & SKATE","phone":"(864) 242-4456","address":"1212 Laurens Rd.","state":"SC","city":"Greenville","postal":"29607","priority":1},{"lat":"41.5520931","lng":"-70.6167764","id":7712323,"name":"BOARD STIFF - FALMOUTH","address":"193 Main St.","state":"MA","city":"Falmouth","postal":"02540","priority":1},{"lat":"42.0509982","lng":"-70.1870342","id":7712324,"name":"BOARD STIFF - PROVINCETOWN","address":"273 Commercial St.","state":"MA","city":"Provincetown","postal":"02657","priority":1},{"lat":"58.362537","lng":"-134.5773373","id":7712325,"name":"BOARDERLINE LEGACY","phone":"(907) 789-0169","address":"8745 Glacier Hwy #342","state":"AK","city":"Juneau","postal":"99801","priority":1},{"lat":"38.3132075","lng":"-122.2966221","id":7712326,"name":"BOARDGARDEN - NAPA","phone":"(707) 253-7949","address":"2740 Jefferson St.","state":"CA","city":"Napa","postal":"94558","priority":1},{"lat":"41.653535","lng":"-70.282869","id":7712327,"name":"BOARDING HOUSE - HYANNIS","phone":"(508) 778-4080","address":"354 Main St.","state":"MA","city":"Hyannis","postal":"02601","priority":1},{"lat":"40.5868469","lng":"-122.3916943","id":7712328,"name":"BOARDMART - REDDING","phone":"(530) 243-2323","address":"1261 Market St.","state":"CA","city":"Redding","postal":"96001","priority":1},{"lat":"40.0850532","lng":"-74.0484073","id":7712329,"name":"BRAVE NEW WORLD","phone":"732-899-8220","address":"1208 Richmond","state":"NJ","city":"Point Pleasant Beach","postal":"08742","priority":1},{"lat":"40.324765","lng":"-74.0389629","id":7712330,"name":"BRAVE NEW WORLD -LITTLE SILVER","phone":"732-842-6767","address":"61 Oceanport Ave.","state":"NJ","city":"Little Silver","postal":"07739","priority":1},{"lat":"39.9847651","lng":"-74.1803728","id":7712331,"name":"BRAVE NEW WORLD -TOMS RIVER","phone":"732-505-3600","address":"1272 Hooper Ave.","state":"NJ","city":"Toms River","postal":"08753","priority":1},{"lat":"39.6529198","lng":"-104.8079848","id":7712332,"name":"BROTHERS BOARDS - DENVER","phone":"(303) 718-9493","address":"15446 E Hampden Ave","state":"CO","city":"Aurora","postal":"80013","priority":1},{"lat":"40.5786335","lng":"-105.0766795","id":7712333,"name":"THE MARKET","phone":"(970) 407-1767","address":"640 S. College Ave.","state":"CO","city":"Fort Collins","postal":"80524","priority":1},{"lat":"44.9482043","lng":"-93.3040962","id":7712334,"name":"CAL SURF","phone":"(612) 822-6840","address":"1715 West Lake St.","state":"MN","city":"Minneapolis","postal":"55408","priority":1},{"lat":"46.5473619","lng":"-87.3949779","id":7712335,"name":"CASUALTIES","phone":"(906) 226-8484","address":"503 N. 3rd.","state":"MI","city":"Marquette","postal":"49855","priority":1},{"lat":"40.612916","lng":"-74.122181","id":7712336,"name":"CD SKATESHOP OF SI","address":"1760 Victory Blvd.","state":"NY","city":"Staten Island","postal":"10314","priority":1},{"lat":"35.2792561","lng":"-120.6617075","id":7712337,"name":"CENTRAL COAST SURFBOARDS","phone":"(805) 541-1129","address":"855 Marsh St.","state":"CA","city":"San Luis Obispo","postal":"93401","priority":1},{"lat":"37.7689801","lng":"-120.8367044","id":7712338,"name":"OAKIES","phone":"(209) 848-1624","address":"1275 E. F St. Ste. 8","state":"CA","city":"Oakdale","postal":"95361","priority":1},{"lat":"39.2800869","lng":"-76.5597471","id":7712339,"name":"CHARM CITY SK8 - BALTIMORE","phone":"(410) 327-7909","address":"4401 O'Donnell St. Ste. B","state":"MD","city":"Baltimore","postal":"21224","priority":1},{"lat":"39.1417334","lng":"-76.607701","id":7712340,"name":"CHARM CITY SK8 - GLEN BURNIE","phone":"(410) 327-7909","address":"7626 B+A Blvd.","state":"MD","city":"Glen Burnie","postal":"21061","priority":1},{"lat":"42.1834489","lng":"-83.1903961","id":7712341,"name":"CHEAPSKATES - RIVERVIEW","phone":"(734) 283-4360","address":"17096 Fort","state":"MI","city":"Wyandotte","postal":"48192","priority":1},{"lat":"32.8196081","lng":"-117.1737135","id":7712342,"name":"CLAIREMONT SURF SHOP","phone":"(828) 292-1153","address":"6393 Balboa Ave","state":"CA","city":"San Diego","postal":"92111","priority":1},{"lat":"42.4906214","lng":"-82.9417741","id":7712343,"name":"CORKY'S SURF SHOP - ROSEVILLE","address":"26441 Gratiot  Ave.","state":"MI","city":"Roseville","postal":"48066","priority":1},{"lat":"33.981124","lng":"-117.3761301","id":7712344,"name":"CROOKS SKATEBOARD SHOP","address":"3764 9th St.","state":"CA","city":"Riverside","postal":"92501","priority":1},{"lat":"41.6254943","lng":"-72.748283","id":7712345,"name":"CUTTING EDGE SOUTH","phone":"(860) 828-3428","address":"146 Mill St.","state":"CT","city":"Kensington","postal":"06037","priority":1},{"lat":"37.9421601","lng":"-87.8610325","id":7712346,"name":"DANS COMPETITION","phone":"888-888-DANS","address":"1 Competition Way","state":"IN","city":"Mount Vernon","postal":"47620","priority":1},{"lat":"43.6464879","lng":"-72.7898297","id":7712347,"name":"DARKSIDE SNOWBOARDS - STOWE #1","phone":"(802) 253-0335","address":"1842 Killington Rd.","state":"VT","city":"Killington","postal":"05751","priority":1},{"lat":"44.4680908","lng":"-72.6881338","id":7712348,"name":"DARKSIDE SNOWBOARDS - STOWE #2","address":"216 Mountain Road","state":"VT","city":"Stowe","postal":"05672","priority":1},{"lat":"39.1718616","lng":"-120.1389699","id":7712349,"name":"DAVE'S SKI SHOPS","phone":"(530) 583-6415","address":"600 N. Lake Blvd.","state":"CA","city":"Tahoe City","postal":"96145","priority":1},{"lat":"41.9949721","lng":"-70.8446515","id":7712350,"name":"MAUL'S BIKE SHOP","phone":"(781) 293-3665","address":"300 Plymouth St.","state":"MA","city":"Halifax","postal":"02338","priority":1},{"lat":"46.8056915","lng":"-100.7837863","id":7712351,"name":"DISCONTENT - BISMARCK","phone":"(701) 221-3007","address":"514 E. Main","state":"ND","city":"Bismarck","postal":"58501","priority":1},{"lat":"46.8734424","lng":"-96.7667377","id":7712352,"name":"DISCONTENT - MOORHEAD","phone":"(218) 236-6043","address":"815 Main Ave.","state":"MN","city":"Moorhead","postal":"56560","priority":1},{"lat":"45.7861544","lng":"-108.4981797","id":7712353,"name":"DISCONTENT- BILLINGS","address":"2123 1st Ave. N.","state":"MT","city":"Billings","postal":"59102","priority":1},{"lat":"37.5525268","lng":"-77.4783163","id":7712354,"name":"VENUE SKATEBOARDS","address":"2926 W. Cary St.","state":"VA","city":"Richmond","postal":"23221","priority":1},{"lat":"32.7919642","lng":"-115.5690793","id":7712355,"name":"DRISCOLL'S","phone":"(760) 353-1105","address":"1470 State St. Ste. 3","state":"CA","city":"El Centro","postal":"92243","priority":1},{"lat":"46.0775759","lng":"-118.3065453","id":7712356,"name":"DUSTY'S SKI'S & SNOWBOARDS","phone":"509-552-1443","address":"1975 Walla Walla Avenue","state":"WA","city":"Walla Walla","postal":"99362","priority":1},{"lat":"42.5523457","lng":"-70.9580476","id":7712357,"name":"EASTERN BOARDER - DANVERS","phone":"(978) 777-5650","address":"29 Andover Street","state":"MA","city":"Danvers","postal":"01923","priority":1},{"lat":"42.2976929","lng":"-71.4053527","id":7712358,"name":"EASTERN BOARDER - FRAMINGHAM","phone":"(508) 628-0186","address":"280 Worcester Rd.","state":"MA","city":"Framingham","postal":"01702","priority":1},{"lat":"42.5344803","lng":"-71.7408395","id":7712359,"name":"EASTERN BOARDER - LEOMINSTER","phone":"(978) 466-5100","address":"20 Commercial Rd.","state":"MA","city":"Leominster","postal":"01453","priority":1},{"lat":"42.7085507","lng":"-71.4407434","id":7712360,"name":"EASTERN BOARDER - NASHUA","phone":"(603) 888-0722","address":"254 Daniel Webster Hwy.","state":"NH","city":"Nashua","postal":"03061","priority":1},{"lat":"42.29081","lng":"-71.805698","id":7712361,"name":"EASTERN BOARDER - WORCESTER","phone":"(508) 852-3668","address":"64 W. Boylston Street","state":"MA","city":"Worcester","postal":"01606","priority":1},{"lat":"33.7716043","lng":"-118.1648061","id":7712362,"name":"EAST 4th SKATE","phone":"(562) 856-3685","address":"2228 E. 4th Street","state":"CA","city":"Long Beach","postal":"90814","priority":1},{"lat":"35.7889744","lng":"-78.6448827","id":7712363,"name":"ENDLESS GRIND","phone":"(910) 791-8240","address":"424 W. Peace St.","state":"NC","city":"Raleigh","postal":"27603","priority":1},{"lat":"42.1861514","lng":"-85.5624161","id":7712364,"name":"THE EDGE","phone":"269-327-1000","address":"9009 Portage Rd.","state":"MI","city":"Portage","postal":"49002","priority":1},{"lat":"41.4920596","lng":"-71.2837919","id":7712365,"name":"ELEMENTAL SURF + SKATE","phone":"(401) 846-2280","address":"89 Aquidneck Avenue","state":"RI","city":"Middletown","postal":"02842","priority":1},{"lat":"33.862929","lng":"-118.3912757","id":7712366,"name":"E.T. SURF","phone":"(310) 379-7660","address":"904 Aviation Blvd.","state":"CA","city":"Hermosa Beach","postal":"90254","priority":1},{"lat":"33.9798133","lng":"-118.1863639","id":7712367,"name":"EUROSTAR-BELL","phone":"(323) 562-9999","address":"6250 Atlantic Ave.","state":"CA","city":"Bell","postal":"90201","priority":1},{"lat":"45.5242674","lng":"-122.6980586","id":7712368,"name":"EXIT REAL WORLD - PORTLAND","phone":"(503) 226-EXIT","address":"206 N.W. 23rd Ave.","state":"OR","city":"Portland","postal":"97210","priority":1},{"lat":"44.9419017","lng":"-123.0358046","id":7712369,"name":"EXIT REAL WORLD - SALEM","phone":"(503) 585-EXIT","address":"505 Chemeketa St. NE","state":"OR","city":"Salem","postal":"97301","priority":1},{"lat":"43.3178937","lng":"-88.3793511","id":7712370,"name":"EXPEDITION SUPPLY - HARTFORD","phone":"(262) 673-7303","address":"20 West Sumner St.","state":"WI","city":"Hartford","postal":"53027","priority":1},{"lat":"33.5099832","lng":"-86.8170524","id":7712371,"name":"FAITH SKATE SUPPLY","phone":"(205) 933-0570","address":"1201 2nd Ave N.Suite# B","state":"AL","city":"Birmingham","postal":"35203","priority":1},{"lat":"39.0933089","lng":"-74.7250967","id":7712372,"name":"FARIAS SURF SPORT - AVALON","phone":"(609) 871-9637","address":"34 Dune Dr.","state":"NJ","city":"Avalon","postal":"08202","priority":1},{"lat":"38.9304698","lng":"-74.9224528","id":7712373,"name":"FARIAS SURF SPORT - CAPE MAY","address":"311 Beach Ave.","state":"NJ","city":"Cape May","postal":"08204","priority":1},{"lat":"40.7432087","lng":"-73.9930541","id":7712374,"name":"FARIAS SURF SPORT-BEACH HAVEN1","address":"101 West 23rd Street","state":"NJ","city":"Beach Haven","postal":"08008","priority":1},{"lat":"39.5689958","lng":"-74.2359301","id":7712375,"name":"FARIAS SURF SPORT-BEACH HAVEN2","phone":"(609) 492-0200","address":"823 N. Bay Ave.","state":"NJ","city":"Beach Haven","postal":"08008","priority":1},{"lat":"39.5663987","lng":"-74.2377894","id":7712376,"name":"FARIAS SURF SPORT-BEACH HAVEN3","phone":"(609) 494-7368","address":"5th & Blvd.","state":"NJ","city":"Beach Haven","postal":"08008","priority":1},{"lat":"39.5632275","lng":"-74.2395065","id":7712377,"name":"FARIAS SURF SPORT-BEACH HAVEN4","address":"220 Centre St.","state":"NJ","city":"Beach Haven","postal":"08008","priority":1},{"lat":"39.5804316","lng":"-74.2262011","id":7712378,"name":"FARIAS SURF SPORT-BEACH HAVEN5","phone":"(609) 871-9637","address":"28th & Blvd.","state":"NJ","city":"Beach Haven","postal":"08008","priority":1},{"lat":"39.558489","lng":"-74.2400164","id":7712379,"name":"FARIAS SURF SPORT-BEACH HAVEN6","phone":"(609) 871-9637","address":"506 Blvd.","state":"NJ","city":"Beach Haven","postal":"08008","priority":1},{"lat":"42.2855862","lng":"-72.6158329","id":7712380,"name":"FAT TRAX - EAST HAMPTON","phone":"(413) 586-8766","address":"19 North Street","state":"MA","city":"Easthampton","postal":"01027","priority":1},{"lat":"42.0799705","lng":"-72.5363576","id":7712381,"name":"FAT TRAX - EAST LONG MEADOW","address":"612 North Main Street","state":"MA","city":"East Longmeadow","postal":"01028","priority":1},{"lat":"40.3171252","lng":"-76.7956374","id":7712382,"name":"FISHBONE #1","phone":"(717)540-6399","address":"5400 Jonestown Rd.","state":"PA","city":"Harrisburg","postal":"17112","priority":1},{"lat":"40.339244","lng":"-76.4286494","id":7712383,"name":"FISHBONE #2","phone":"(717) 273-6377","address":"1021 Cumberland St.","state":"PA","city":"Lebanon","postal":"17042","priority":1},{"lat":"40.2375897","lng":"-76.9569696","id":7712384,"name":"FISHBONE #3","phone":"(717) 737-6389","address":"4343 Carlisle Pike","state":"PA","city":"Camp Hill","postal":"17011","priority":1},{"lat":"39.970464","lng":"-76.7715232","id":7712385,"name":"FISHBONE #4","phone":"(717) 767-6336","address":"1800 Loucks Rd.","state":"PA","city":"York","postal":"17404","priority":1},{"lat":"39.8219813","lng":"-76.9961723","id":7712386,"name":"FISHBONE #5","phone":"(717) 632-6310","address":"1155 Carlisle St. Ste. 209","state":"PA","city":"Hanover","postal":"17331","priority":1},{"lat":"37.8648396","lng":"-122.258699","id":7712387,"name":"510 SKATEBOARDING","phone":"(510) 843-1863","address":"2506 Telegraph Ave.","state":"CA","city":"Berkeley","postal":"94704","priority":1},{"lat":"35.5978524","lng":"-82.5534768","id":7712388,"name":" FLIPSIDE-NORTH CAROLINA","phone":"(828) 254-9007","address":"88 N. Lexington Ave.","state":"NC","city":"Asheville","postal":"28801","priority":1},{"lat":"35.3326794","lng":"-82.469416","id":7712389,"name":"FLIPSIDE - HENDERSONVILLE","phone":"(828) 693-0900","address":"1712 Asheville Highway","state":"NC","city":"Hendersonville","postal":"28791","priority":1},{"lat":"35.5218","lng":"-83.1102928","id":7712390,"name":"FLIPSIDE BOARDSHOP","phone":"(828) 926-3699","address":"4920 Soco Road","state":"NC","city":"Maggie Valley","postal":"28751","priority":1},{"lat":"42.274851","lng":"-83.7344196","id":7712391,"name":"FOOTPRINTS - LAUNCH BOARDSHOP","phone":"(734) 827-5283","address":"1200 S. University","state":"MI","city":"Ann Arbor","postal":"48104","priority":1},{"lat":"33.2818774","lng":"-111.7886418","id":7712392,"name":"FREEDOM BOARD SHOP - GILBERT","address":"3757 S GILBERT RD STE 105","state":"AZ","city":"Gilbert","postal":"85296","priority":1},{"lat":"33.3911735","lng":"-111.7901818","id":7712393,"name":"FREEDOM BOARD SHOP - MESA","phone":"(480) 892-1707","address":"1316 S. Gilbert Rd. Suite D-6","state":"AZ","city":"Mesa","postal":"85204","priority":1},{"lat":"28.5703092","lng":"-81.3729609","id":7712394,"name":"GALACTIC G.","phone":"(407) 895-0410","address":"2020 N. Orange Ave.","state":"FL","city":"Orlando","postal":"32804","priority":1},{"lat":"42.4507754","lng":"-73.2531191","id":7712395,"name":"THE GARDEN","phone":"(413) 442-9088","address":"148 North St.","state":"MA","city":"Pittsfield","postal":"01201","priority":1},{"lat":"41.3662503","lng":"-85.0732505","id":7712396,"name":"GLIK\"S-AUBURN #77","address":"Auburn Plaza1021 W. 7th Ave.","state":"IN","city":"Auburn","postal":"46706","priority":1},{"lat":"45.8615478","lng":"-95.3809877","id":7712397,"name":"GLIK'S - ALEXANDRIA #128","phone":"(320) 846-0700","address":"3015 Hwy. 29 Ste. 4007","state":"MN","city":"Alexandria","postal":"56308","priority":1},{"lat":"46.5900322","lng":"-90.8858658","id":7712398,"name":"GLIK'S - ASHLAND #132","phone":"(715) 682-6011","address":"304 Main St. W. Ste. 1","state":"WI","city":"Ashland","postal":"54806","priority":1},{"lat":"45.3183554","lng":"-85.259102","id":7712399,"name":"GLIK'S - CHARLEVOIX #134","address":"113 Bridge St.","state":"MI","city":"Charlevoix","postal":"49720","priority":1},{"lat":"40.172895","lng":"-87.6291268","id":7712400,"name":"GLIK'S - DANVILLE #58","phone":"(217) 477-1487","address":"2917 N. Vermillion St. Ste. C-48","state":"IL","city":"Danville","postal":"61832","priority":1},{"lat":"46.8181921","lng":"-95.8463548","id":7712401,"name":"GLIK'S - DETROIT LAKES #123 2","phone":"(218) 847-0142","address":"808 Washington Ave. Ste. 10","state":"MN","city":"Detroit Lakes","postal":"56501","priority":1},{"lat":"38.4177098","lng":"-96.2153612","id":7712402,"name":"GLIK'S - EMPORIA #178","phone":"(620) 208-6565","address":"Flinthills Mall1686B Industrial Road  Suite 104","state":"KS","city":"Emporia","postal":"66801","priority":1},{"lat":"45.7484564","lng":"-87.0816483","id":7712403,"name":"GLIK'S - ESCANABA #118","phone":"(906) 786-9162","address":"301 N. Lincoln Rd. Ste. 42","state":"MI","city":"Escanaba","postal":"49829","priority":1},{"lat":"38.595055","lng":"-89.9827065","id":7712404,"name":"GLIK'S - FAIRVIEW HEIGHTS #21","phone":"(618) 624-6701","address":"232 St. Clair Sq.","state":"IL","city":"Fairview Heights","postal":"62208","priority":1},{"lat":"37.7904273","lng":"-90.438313","id":7712405,"name":"GLIK'S - FARMINGTON # 38","phone":"(573) 756-7505","address":"746 Market St.","state":"MO","city":"Farmington","postal":"63640","priority":1},{"lat":"38.2118601","lng":"-90.3933595","id":7712406,"name":"GLIK'S - FESTUS #32","phone":"(636) 933-3955","address":"336 Festus Centre Dr.","state":"MO","city":"Festus","postal":"63028","priority":1},{"lat":"38.8226284","lng":"-90.2473575","id":7712407,"name":"GLIK'S - FLORISSANT #24","phone":"(314) 355-7002","address":"113 Jamestown Mall","state":"MO","city":"Florissant","postal":"63034","priority":1},{"lat":"47.2364768","lng":"-93.5317306","id":7712408,"name":"GLIK'S - GRAND RAPIDS #137","address":"201 NW 4th Street #113Center Square Mall","state":"MN","city":"Grand Rapids","postal":"55744","priority":1},{"lat":"38.721739","lng":"-90.121978","id":7712409,"name":"GLIK'S - GRANITE CITY #002","phone":"(618) 876-6717","address":"3248 Nameoki Rd.","state":"IL","city":"Granite City","postal":"62040","priority":1},{"lat":"46.0145807","lng":"-91.4851789","id":7712410,"name":"GLIK'S - HAYWARD #133","phone":"(715) 634-0672","address":"10567 Main St.","state":"WI","city":"Hayward","postal":"54843","priority":1},{"lat":"38.7530374","lng":"-89.682802","id":7712411,"name":"GLIK'S - HIGHLAND #8","phone":"(618) 654-9421","address":"2675 NorthTown Way","state":"IL","city":"Highland","postal":"62249","priority":1},{"lat":"45.8708496","lng":"-89.7096619","id":7712412,"name":"GLIK'S - MINOCQUA #131","phone":"(715) 358-6815","address":"504 Oneida St.","state":"WI","city":"Minocqua","postal":"54548","priority":1},{"lat":"39.6047264","lng":"-87.6781182","id":7712413,"name":"GLIK'S - PARIS #126","phone":"(217) 465-8101","address":"15321 U.S. Hwy. 150","state":"IL","city":"Paris","postal":"61944","priority":1},{"lat":"38.537601","lng":"-91.0036559","id":7712414,"name":"GLIK'S - WASHINGTON #124","phone":"(636) 239-1310","address":"1080 Washington Sq.","state":"MO","city":"Washington","postal":"63090","priority":1},{"lat":"38.3389565","lng":"-90.1633289","id":7712415,"name":"GLIK'S - WATERLOO","phone":"(618) 939-0699","address":"915 Illinois Ave.","state":"IL","city":"Waterloo","postal":"62298","priority":1},{"lat":"38.8850807","lng":"-90.103832","id":7712416,"name":"GLIK'S - WILSHIRE #3","phone":"(618) 259-7841","address":"618 Berkshire Blvd.","state":"IL","city":"East Alton","postal":"62024","priority":1},{"lat":"45.4611771","lng":"-98.4421775","id":7712417,"name":"GLIK'S-ABERDEEN #145","phone":"605-725-8900","address":"Lakewood Mall3315 6th Ave. SESuite# 28","state":"SD","city":"Aberdeen","postal":"57401","priority":1},{"lat":"38.7218946","lng":"-90.1227468","id":7712418,"name":"GLIK'S-GRANITE CITY SPORTS #52","phone":"(618) 877-1316","address":"3250 Nameoki Rd.","state":"IL","city":"Granite City","postal":"62040","priority":1},{"lat":"44.8751282","lng":"-94.3793193","id":7712419,"name":"GLIK'S-HUTCHINSON #143","phone":"320-587-2959","address":"1060 Highway 15 SouthSuite #93","state":"MN","city":"Hutchinson","postal":"55350","priority":1},{"lat":"45.3622961","lng":"-84.9695954","id":7712420,"name":"GLIK'S-PETOSKEY #109","phone":"(231) 347-9944","address":"1347 Spring St.","state":"MI","city":"Petoskey","postal":"49770","priority":1},{"lat":"45.4720979","lng":"-91.7373715","id":7712421,"name":"GLIK'S-RICE LAKE #142","phone":"715-736-0065","address":"2900 South Main St. Suite #6","state":"WI","city":"Rice Lake","postal":"54868","priority":1},{"lat":"47.5114182","lng":"-92.5552071","id":7712422,"name":"GLIK'S-VIRGINIA #141","phone":"218-741-9511","address":"1428 South 12th Ave  Space #28","state":"MN","city":"Virginia","postal":"55792","priority":1},{"lat":"40.81508","lng":"-85.834734","id":7712423,"name":"GLIK'S-WABASH #106","phone":"(260) 563-4450","address":"1371 N. Cass St.","state":"IN","city":"Wabash","postal":"46992","priority":1},{"lat":"39.2175613","lng":"-121.0633238","id":7712424,"name":"GOODTIMES BOARDSTORE","phone":"(530) 272-7751","address":"156 Mill Street","state":"CA","city":"Grass Valley","postal":"95945","priority":1},{"lat":"25.9281484","lng":"-80.2187823","id":7712425,"name":"PETER GLENN #13  - NORTH MIAMI","phone":"305-622-6440","address":"900 Park Centre Blvd.Suite# 444","state":"FL","city":"Miami","postal":"33169","priority":1},{"lat":"26.704783","lng":"-80.0805126","id":7712426,"name":"PETER GLENN #3  - PALM BEACH","phone":"561-622-7940","address":"1900 Okeechobee Blvd. Suite# B-1","state":"FL","city":"West Palm Beach","postal":"33409","priority":1},{"lat":"26.1658164","lng":"-80.1831549","id":7712427,"name":"PETER GLENN #5 - FT LAUDERDALE","phone":"954-484-3606","address":"2901 W. Oakland Park Blvd.","state":"FL","city":"Fort Lauderdale","postal":"33311","priority":1},{"lat":"25.6606707","lng":"-80.3252103","id":7712428,"name":"PETER GLENN OF VERMONT #12","phone":"(305)254-3309","address":"11855 S. Dixie Highway 2nd Floor","state":"FL","city":"Miami","postal":"33156","priority":1},{"lat":"44.2292674","lng":"-72.5516881","id":7712429,"name":"PETER GLENN OF VERMONT #15","phone":"(802)476-3175","address":"1400 US Route 302 Suite 8","state":"VT","city":"Barre","postal":"05641","priority":1},{"lat":"28.4626693","lng":"-81.4526608","id":7712430,"name":"PETER GLENN OF VERMONT #18","phone":"(407)354-1234","address":"5403 International Drive.","state":"FL","city":"Orlando","postal":"32819","priority":1},{"lat":"33.9081197","lng":"-84.3804067","id":7712431,"name":"PETER GLENN OF VERMONT #19","phone":"(404)257-1706","address":"5600 Roswell Rd. N.E. Ste. 17","state":"GA","city":"Atlanta","postal":"30342","priority":1},{"lat":"34.0111292","lng":"-84.5622769","id":7712432,"name":"PETER GLENN OF VERMONT #29","phone":"(770)419-0602","address":"425 Ernest Barrett Parkway D-1","state":"GA","city":"Kennesaw","postal":"30144","priority":1},{"lat":"37.6395985","lng":"-77.5591288","id":7712433,"name":"PETER GLENN OF VERMONT #34","phone":"(804) 527-2020","address":"9507 Broad Street","state":"VA","city":"Richmond","postal":"23294","priority":1},{"lat":"26.707661","lng":"-80.1157267","id":7712434,"name":"PETER GLENN OF VERMONT #4","phone":"(561)683-4044","address":"4833 Okeechobee Blvd. Ste. 103","state":"FL","city":"West Palm Beach","postal":"33417","priority":1},{"lat":"26.1376838","lng":"-80.1226631","id":7712435,"name":"PETER GLENN OF VERMONT #55","phone":"(954)467-7872","address":"1771 East Sunrise Blvd.","state":"FL","city":"Fort Lauderdale","postal":"33304","priority":1},{"lat":"26.4384975","lng":"-80.0874519","id":7712436,"name":"PETER GLENN OF VERMONT #6","phone":"(561)330-8501","address":"1350 Linton Blvd. Suite A-5","state":"FL","city":"Delray Beach","postal":"33444","priority":1},{"lat":"28.0442727","lng":"-82.5054758","id":7712437,"name":"PETER GLENN OF VERMONT #7","phone":"(813)960-2453","address":"10330 Dale Mabry Hwy. N. Ste. 190","state":"FL","city":"Tampa","postal":"33618","priority":1},{"lat":"61.1222736","lng":"-149.8537571","id":7712438,"name":"PETER GLENN OF VERMONT #70","phone":"(907)349-2929","address":"1520 O'Malley Rd.","state":"AK","city":"Anchorage","postal":"99516","priority":1},{"lat":"28.6827394","lng":"-81.4197855","id":7712439,"name":"PETER GLENN OF VERMONT #8","phone":"(407)788-3334","address":"990 North State Road 434","state":"FL","city":"Altamonte Springs","postal":"32714","priority":1},{"lat":"33.8852314","lng":"-84.4625927","id":7712440,"name":"PETER GLENN OF VERMONT #9","phone":"(770)951-0151","address":"42A Galleria Parkway NW","state":"GA","city":"Atlanta","postal":"30339","priority":1},{"lat":"41.455719","lng":"-70.6027645","id":7712441,"name":"GREEN ROOM","phone":"(508) 693-6888","address":"71 Main Street","state":"MA","city":"Vineyard Haven","postal":"02568","priority":1},{"lat":"37.22988","lng":"-80.416296","id":7712442,"name":"THE GREENHOUSE BOARDSHOP","phone":"(540) 552-3672","address":"203 College Ave","state":"VA","city":"Blacksburg","postal":"24060","priority":1},{"lat":"33.038045","lng":"-117.292464","id":7712443,"name":"HANSEN'S","phone":"(760) 753-6595","address":"1105 S. Coast Hwy. 101","state":"CA","city":"Encinitas","postal":"92024","priority":1},{"lat":"32.7752637","lng":"-117.0127883","id":7712444,"name":"HANGER 94 - LA MESA","phone":"(619) 469-9494","address":"5270 Jackson Dr.","state":"CA","city":"La Mesa","postal":"91942","priority":1},{"lat":"36.8442194","lng":"-76.1354753","id":7712445,"name":"COASTAL EDGE - VA BLVD.","phone":"(757) 491-3168","address":"4586 Virginia Beach Ste. 9","state":"VA","city":"Virginia Beach","postal":"23456","priority":1},{"lat":"36.8163277","lng":"-76.0710292","id":7712446,"name":"HARYGUL - LYNHAVEN MALL","phone":"(757) 498-3633","address":"Lynnhaven Mall","state":"VA","city":"Virginia Beach","postal":"23451","priority":1},{"lat":"36.8438997","lng":"-76.023126","id":7712447,"name":"HARYGUL IMPORTS, INC.","phone":"(757) 491-9011","address":"1724 Virginia Beach Blvd. Ste. 103","state":"VA","city":"Virginia Beach","postal":"23454","priority":1},{"lat":"48.4683081","lng":"-122.3351899","id":7712448,"name":"HIDDEN WAVE BOARDSHOP","phone":"(360) 757-4998","address":"896 S. Burlington Blvd","state":"WA","city":"Burlington","postal":"98233","priority":1},{"lat":"45.4947826","lng":"-122.4073891","id":7712449,"name":"HILLCREST","phone":"(503) 665-4455","address":"2506 S.E. Burnside","state":"OR","city":"Gresham","postal":"97080","priority":1},{"lat":"33.2093634","lng":"-117.2789593","id":7712450,"name":"SURFRIDE","phone":"(760) 433-4020","address":"1609 Ord Way","state":"CA","city":"Oceanside","postal":"92056","priority":1},{"lat":"32.9955189","lng":"-117.2730768","id":7712455,"name":"SURFRIDE - SOLANO BEACH","address":"325 N. Hwy 101","state":"CA","city":"Solana Beach","postal":"92075","priority":1},{"lat":"38.2339286","lng":"-85.7124187","id":7712458,"name":"HOME SKATE SHOP","phone":"(502) 456-6911","address":"1363 Bardstown Rd.","state":"KY","city":"Louisville","postal":"40204","priority":1},{"lat":"40.6101984","lng":"-75.3789784","id":7712462,"name":"HOMEBASE SKATESHOP","phone":"(610) 866-0540","address":"14 W. 4th St.","state":"PA","city":"Bethlehem","postal":"18015","priority":1},{"lat":"33.6573938","lng":"-118.0007676","id":7712465,"name":"HUNTINGTON SURF & SPORT #1","phone":"(714) 841-4000","address":"300 Pacific Coast Hwy. Ste. 408","state":"CA","city":"Huntington Beach","postal":"92648","priority":1},{"lat":"33.6954333","lng":"-118.0007219","id":7712466,"name":"HUNTINGTON SURF & SPORT #2","phone":"(714) 841-4000","address":"18411 Gothard St. Ste. J","state":"CA","city":"Huntington Beach","postal":"92648","priority":1},{"lat":"33.7315989","lng":"-117.9944272","id":7712473,"name":"HUNTINGTON SURF & SPORT #3","phone":"(714) 890-0800","address":"7777 Edinger Ave.","state":"CA","city":"Huntington Beach","postal":"92647","priority":1},{"lat":"33.8483571","lng":"-117.9971535","id":7712482,"name":"IDENTITY","phone":"(714) 232-8020","address":"7886 Beach Blvd.","state":"CA","city":"Buena Park","postal":"90620","priority":1},{"lat":"33.7874632","lng":"-117.958079","id":7712488,"name":"IDENTITY - GARDEN GROVE","phone":"(714) 537-9595","address":"12072 Brookhurst St","state":"CA","city":"Garden Grove","postal":"92840","priority":1},{"lat":"35.105509","lng":"-106.5693718","id":7712497,"name":"INDUSTRIAL - ALBUQUERQUE","phone":"(505) 884-1699","address":"6600 Menaul NE H6","state":"NM","city":"Albuquerque","postal":"87110","priority":1},{"lat":"35.1982569","lng":"-106.6569471","id":7712509,"name":"INDUSTRIAL - ALBURQUERQUE #2","phone":"505-898-7751","address":"10000 Coors Blvd BYP NWSte C205A","state":"NM","city":"Albuquerque","postal":"87114","priority":1},{"lat":"33.3020123","lng":"-111.900106","id":7712513,"name":"INDUSTRIAL - CHANDLER","phone":"(480) 812-8881","address":"3111 W. Chandler Blvd. Ste. 2198","state":"AZ","city":"Chandler","postal":"85226","priority":1},{"lat":"33.3108551","lng":"-111.7424853","id":7712518,"name":"INDUSTRIAL - GILBERT","phone":"480-917-4584","address":"2200 E. Williams Field Rd Suite 112","state":"AZ","city":"Gilbert","postal":"85296","priority":1},{"lat":"33.6417572","lng":"-112.2245933","id":7712528,"name":"INDUSTRIAL - GLENDALE","phone":"(623) 776-7000","address":"7700 W. Arrowhead Town Ctr.Suite #2172","state":"AZ","city":"Glendale","postal":"85308","priority":1},{"lat":"36.066899","lng":"-115.0417357","id":7712530,"name":"INDUSTRIAL - HENDERSON","phone":"(702) 435-0600","address":"1300 W. Sunset Road","state":"NV","city":"Henderson","postal":"89014","priority":1},{"lat":"36.1723877","lng":"-115.1969055","id":7712534,"name":"INDUSTRIAL - LAS VEGAS","phone":"(702) 259-9000","address":"4300 Meadows Lane","state":"NV","city":"Las Vegas","postal":"89107","priority":1},{"lat":"33.3902623","lng":"-111.6902936","id":7712541,"name":"INDUSTRIAL - MESA","phone":"(480) 807-9660","address":"6555 E. Southern Ste. 2114","state":"AZ","city":"Mesa","postal":"85206","priority":1},{"lat":"40.2750825","lng":"-111.6813901","id":7712549,"name":"INDUSTRIAL - OREM","phone":"801-225-4193","address":"575 University Pkwy #H147","state":"UT","city":"Orem","postal":"84097","priority":1},{"lat":"33.6021872","lng":"-111.9836094","id":7712556,"name":"INDUSTRIAL - PHOENIX","phone":"(602) 923-1100","address":"4550 E. Cactus Road","state":"AZ","city":"Phoenix","postal":"85032","priority":1},{"lat":"33.5751273","lng":"-112.1208796","id":7712562,"name":"INDUSTRIAL - PHOENIX #2","phone":"(602) 944-5678","address":"9617 Metro Parkway West","state":"AZ","city":"Phoenix","postal":"85051","priority":1},{"lat":"33.6780235","lng":"-111.9769176","id":7712565,"name":"INDUSTRIAL - PHOENIX #3","phone":"(480) 585-0482","address":"21001 N. Tatum Blvd.","state":"AZ","city":"Phoenix","postal":"85050","priority":1},{"lat":"45.434954","lng":"-122.5757136","id":7712566,"name":"INDUSTRIAL - PORTLAND","address":"12000 SE 82nd Ave ste K207","state":"OR","city":"Happy Valley","postal":"97086","priority":1},{"lat":"33.4141706","lng":"-111.9654859","id":7712568,"name":"INDUSTRIAL - SCOTTSDALE","phone":"(480) 348-0163","address":"1524 W. 14th StreetSuite #115","state":"AZ","city":"Tempe","postal":"85281","priority":1},{"lat":"33.5039383","lng":"-111.9307538","id":7712570,"name":"INDUSTRIAL - SCOTTSDALE #2","phone":"(480) 425-1220","address":"7014-2112 E. Camelback Rd.","state":"AZ","city":"Scottsdale","postal":"85251","priority":1},{"lat":"32.680856","lng":"-97.1298581","id":7712573,"name":"INDUSTRIAL - TEXAS","phone":"(817) 557-6152","address":"3811 S. Cooper Street","state":"TX","city":"Arlington","postal":"76015","priority":1},{"lat":"40.1226786","lng":"-74.0493865","id":7712574,"name":"INLET OUTLET","phone":"(732) 223-5842","address":"146 Main St.","state":"NJ","city":"Manasquan","postal":"08736","priority":1},{"lat":"33.6580272","lng":"-118.0013853","id":7712576,"name":"JACK'S GARAGE","phone":"714-500-5759","address":"121 Main St.","state":"CA","city":"Huntington Beach","postal":"92648","priority":1},{"lat":"33.6058973","lng":"-117.8753374","id":7712578,"name":"JACK'S SURFBOARDS - CDM","phone":"949-718-0001","address":"900 Avocado Ave.","state":"CA","city":"Newport Beach","postal":"92660","priority":1},{"lat":"33.4648473","lng":"-117.685065","id":7712579,"name":"JACK'S SURFBOARDS - DANA POINT","phone":"949-276-8080","address":"34320 Pacific Coast HwySuite #C","state":"CA","city":"Dana Point","postal":"92629","priority":1},{"lat":"33.8669443","lng":"-118.3933718","id":7712581,"name":"JACK'S SURFBOARDS - HERMOSA","phone":"310-374-7873","address":"1630 Pacific Coast Hwy.","state":"CA","city":"Hermosa Beach","postal":"90254","priority":1},{"lat":"33.6577394","lng":"-118.0018199","id":7712583,"name":"JACK'S SURFBOARDS - HUNTINGTON","phone":"(714) 536-4516","address":"101 Main St.","state":"CA","city":"Huntington Beach","postal":"92648","priority":1},{"lat":"33.6700651","lng":"-117.7864984","id":7712585,"name":"JACK'S SURFBOARDS - IRVINE","phone":"949-242-7020","address":"5581 Alton Pkwy.","state":"CA","city":"Irvine","postal":"92618","priority":1},{"lat":"33.6118473","lng":"-117.9297411","id":7712587,"name":"JACK'S SURFBOARDS - NEWPORT","phone":"(714) 673-2300","address":"2727 Newport Blvd. Ste. 101","state":"CA","city":"Newport Beach","postal":"92663","priority":1},{"lat":"42.3214443","lng":"-122.8503993","id":7712588,"name":"JACK'S BOARD HOUSE","address":"452 Highland Dr.","state":"OR","city":"Medford","postal":"97504","priority":1},{"lat":"41.5642702","lng":"-88.1409003","id":7712590,"name":"JERICS OF PLAINFIELD","phone":"(815) 741-3305","address":"2359 Plainfield Rd.","state":"IL","city":"Plainfield","postal":"60544","priority":1},{"lat":"41.2322781","lng":"-80.5121325","id":7712592,"name":"REYER'S","phone":"(724) 981-2200","address":"40 South Water Ave.","state":"PA","city":"Sharon","postal":"16146","priority":1},{"lat":"41.6770556","lng":"-83.620167","id":7712594,"name":"JUST SKATEBOARDS","phone":"(419) 534-3433","address":"3135 W. Central Avenue","state":"OH","city":"Toledo","postal":"43606","priority":1},{"lat":"40.7171941","lng":"-73.9623448","id":7712595,"name":"KCDC LTD.","phone":"(718) 387-9006","address":"85 N. 3rd St.Unit #118","state":"NY","city":"Brooklyn","postal":"11249","priority":1},{"lat":"39.8305607","lng":"-75.5429318","id":7712597,"name":"KINETIC SKATEBOARDING","phone":"(302) 477-1533","address":"5321 Concord Pike","state":"DE","city":"Wilmington","postal":"19803","priority":1},{"lat":"39.8871837","lng":"-75.0593579","id":7712599,"name":"KINETIC SKATEBOARDING - NJ","address":"33 E. Kings Hwy.","state":"NJ","city":"Haddonfield","postal":"08033","priority":1},{"lat":"39.9420852","lng":"-75.1519207","id":7712601,"name":"NOCTURNAL","address":"533 South St.","state":"PA","city":"Philadelphia","postal":"19147","priority":1},{"lat":"38.9840742","lng":"-74.8242694","id":7712603,"name":"KONA SURF SHOP","phone":"(609) 522-7899","address":"103 E.Rio Grande","state":"NJ","city":"Wildwood","postal":"08260","priority":1},{"lat":"43.1496669","lng":"-77.5860022","id":7712605,"name":"KRUDCO SKATES","phone":"(585) 325-4790","address":"371A Park Ave","state":"NY","city":"Rochester","postal":"14607","priority":1},{"lat":"44.3093298","lng":"-71.762117","id":7712607,"name":"LAHOUT'S COUNTRY CLOTHING #1","phone":"(603) 444-5838","address":"245 Union Street","state":"NH","city":"Littleton","postal":"03561","priority":1},{"lat":"44.3087464","lng":"-71.7642915","id":7712608,"name":"LAHOUT'S COUNTRY CLOTHING #2","phone":"(603) 444-5838","address":"185 Union St.","state":"NH","city":"Littleton","postal":"03561","priority":1},{"lat":"44.0380087","lng":"-71.6725066","id":7712610,"name":"LAHOUT'S COUNTRY CLOTHING #3","phone":"603-745-6970","address":"127 Main St.","state":"NH","city":"Lincoln","postal":"03251","priority":1},{"lat":"34.2418034","lng":"-116.9173453","id":7712612,"name":"LEROY'S - BIG BEAR LAKE","phone":"(909) 866-4887","address":"598 Paine Rd.","state":"CA","city":"Big Bear Lake","postal":"92315","priority":1},{"lat":"34.2513589","lng":"-117.1895842","id":7712614,"name":"LEROY'S - LAKE ARROWHEAD","phone":"(909) 866-4887","address":"28200 Hwy. 189Bldg. A-100","state":"CA","city":"Lake Arrowhead","postal":"92352","priority":1},{"lat":"34.0566351","lng":"-117.1820318","id":7712616,"name":"LEROY'S - REDLANDS","phone":"(909) 866-4887","address":"11 E. State St.","state":"CA","city":"Redlands","postal":"92373","priority":1},{"lat":"38.9300532","lng":"-94.4028586","id":7712618,"name":"ESCAPIST - BLUE PARKWAY","address":"880 NW Blue ParkwaySuite #F","state":"MO","city":"Lees Summit","postal":"64086","priority":1},{"lat":"39.0871735","lng":"-94.5895004","id":7712620,"name":"ESCAPIST - SOUTHWEST BLVD","address":"405 Southwest Blvd.Suite #100","state":"MO","city":"Kansas City","postal":"64108","priority":1},{"lat":"37.110075","lng":"-113.572982","id":7712621,"name":"LIP TRIX","phone":"(435) 628-2396","address":"105 N. 500 E.","state":"UT","city":"Saint George","postal":"84770","priority":1},{"lat":"36.3505671","lng":"-119.3806891","id":7712623,"name":"MAINLAND SKATE AND SURF","phone":"(559) 906-0831","address":"8027 W Sunnyview Ave","state":"CA","city":"Visalia","postal":"93291","priority":1},{"lat":"33.9758747","lng":"-118.1876206","id":7712625,"name":"MAINLINE - BELL","address":"6619 Atlantic Ave","state":"CA","city":"Bell","postal":"90201","priority":1},{"lat":"34.1093322","lng":"-118.1930176","id":7712627,"name":"MAINLINE - HIGHLAND PARK","address":"5628 N Figueroa St","state":"CA","city":"Highland Park","postal":"90042","priority":1},{"lat":"33.984115","lng":"-118.2249078","id":7712629,"name":"MAINLINE - HUNTINGTON PARK","phone":"(323) 585-4369","address":"6208 Pacific Blvd.","state":"CA","city":"Huntington Park","postal":"90255","priority":1},{"lat":"33.0366242","lng":"-117.2925899","id":7712631,"name":"MCGILLS SKATESHOP","phone":"(760) 943-7730","address":"335 1st St.","state":"CA","city":"Encinitas","postal":"92024","priority":1},{"lat":"40.0190649","lng":"-105.275747","id":7712633,"name":"META SKATES","phone":"(303) 443-1245","address":"1505 Pearl St.Suite# 103","state":"CO","city":"Boulder","postal":"80302","priority":1},{"lat":"37.9612471","lng":"-122.0610618","id":7712635,"name":"METRO BOARD SHOP","phone":"(925) 363-7440","address":"1120 Contra Costa Blvd.","state":"CA","city":"Concord","postal":"94523","priority":1},{"lat":"40.2745645","lng":"-111.6867315","id":7712636,"name":"MILO SPORT - OREM","phone":"(801) 426-4300","address":"359 E. University Parkway","state":"UT","city":"Orem","postal":"84058","priority":1},{"lat":"40.7002103","lng":"-111.8054517","id":7712638,"name":"MILO SPORT - SALT LAKE CITY","phone":"(801) 487-8600","address":"3119 E 3300 S","state":"UT","city":"Salt Lake City","postal":"84109","priority":1},{"lat":"38.8992564","lng":"-121.069741","id":7712640,"name":"MILO SNOW & SKATE","phone":"(530) 878-5889","address":"905 Lincoln Way  Suite 300","state":"CA","city":"Auburn","postal":"95603","priority":1},{"lat":"39.2766256","lng":"-84.8242265","id":7712642,"name":"MOTO XTREMES","phone":"(812) 637-2255","address":"28016 Stout","state":"IN","city":"West Harrison","postal":"47060","priority":1},{"lat":"37.2335921","lng":"-121.964419","id":7712644,"name":"N.C. BOARDSHOP","phone":"(408) 354-7873","address":"16203 Los Gatos Blvd.","state":"CA","city":"Los Gatos","postal":"95032","priority":1},{"lat":"34.0498883","lng":"-118.241058","id":7712646,"name":"NON FACTORY","phone":"(213) 620-0314","address":"110 South San Pedro St.","state":"CA","city":"Los Angeles","postal":"90012","priority":1},{"lat":"42.7562755","lng":"-71.2098775","id":7712649,"name":"NOTB SNOWBOARDS","phone":"(603) 898-8532","address":"317 SO. Broadway","state":"NH","city":"Salem","postal":"03079","priority":1},{"lat":"42.47624","lng":"-71.2132654","id":7712651,"name":"NOTB SNOWBOARDS - BURLINGTON","phone":"(781) 270-9600","address":"1 Wheeler Rd.","state":"MA","city":"Burlington","postal":"01803","priority":1},{"lat":"34.0431518","lng":"-118.2550368","id":7712652,"name":"OAK WEST FOOTWEAR-LOS ANGELES","phone":"(213) 622-8309","address":"822 S. Broadway","state":"CA","city":"Los Angeles","postal":"90014","priority":1},{"lat":"33.7238528","lng":"-116.3944715","id":7712654,"name":"OAK WEST FOOTWEAR-PALM DESERT","phone":"(760) 836-0084","address":"72840 Highway 111 Ste. W451","state":"CA","city":"Palm Desert","postal":"92260","priority":1},{"lat":"34.6044362","lng":"-118.1519744","id":7712657,"name":"OAK WEST FOOTWEAR-PALMADALE","phone":"(661) 265-7198","address":"1233 W. Rancho Vista Blvd. Ste. 409","state":"CA","city":"Palmdale","postal":"93551","priority":1},{"lat":"34.4736474","lng":"-117.3478756","id":7712658,"name":"OAK WEST FOOTWEAR-VICTORVILLE","phone":"(760) 962-1124","address":"14400 Bear Valley Rd. Ste. 517","state":"CA","city":"Victorville","postal":"92392","priority":1},{"lat":"44.6330122","lng":"-124.0574485","id":7712664,"name":"OCEAN PULSE SURF","address":"428 SW Coast Hwy.","state":"OR","city":"Newport","postal":"97365","priority":1},{"lat":"32.7938529","lng":"-117.255188","id":7712675,"name":"PACIFIC DRIVE","phone":"(858) 270-3361","address":"756 Thomas Ave.","state":"CA","city":"San Diego","postal":"92109","priority":1},{"lat":"33.7007106","lng":"-117.3518695","id":7712680,"name":"PACIFIC SHORE","phone":"(951) 245-1085","address":"17600 Collier Ave.Suite H-172","state":"CA","city":"Lake Elsinore","postal":"92530","priority":1},{"lat":"44.5652109","lng":"-123.2588574","id":7712689,"name":"PEAK SPORTS","phone":"(541) 754-6444","address":"207 NW 2nd Street","state":"OR","city":"Corvallis","postal":"97330","priority":1},{"lat":"31.7546343","lng":"-106.487178","id":7712694,"name":"PEPE'S CASUALS","phone":"(915) 532-3575","address":"417 S. Oregon","state":"TX","city":"El Paso","postal":"79901","priority":1},{"lat":"39.0542464","lng":"-74.7605501","id":7712695,"name":"PETE SMITHS SURF SHOP","phone":"(609) 368-7263","address":"285 96th St.","state":"NJ","city":"Stone Harbor","postal":"08247","priority":1},{"lat":"34.4703499","lng":"-117.289242","id":7712697,"name":"PHARMACY BOARDSHOP - HESPERIA","address":"17153 Bear Valley Rd.Unit# 2","state":"CA","city":"Hesperia","postal":"92345","priority":1},{"lat":"34.473739","lng":"-117.3472043","id":7712700,"name":"PHARMACY BOARDSHOP- VV MALL","address":"14400 Bear Valley Rd.Suite# 625Victorville Mall","state":"CA","city":"Victorville","postal":"92395","priority":1},{"lat":"34.2651329","lng":"-118.5168216","id":7712703,"name":"PHARMACY - GRANADA HILLS","phone":"818-363-8107","address":"17541 Chatsworth St.","state":"CA","city":"Granada Hills","postal":"91344","priority":1},{"lat":"34.605189","lng":"-118.1530202","id":7712706,"name":"PHARMACY RIDE SHOP - PALMDALE","phone":"(661) 947-2642","address":"Antelope Valley Mall1233 W. Rancho Vista Blvd. #321","state":"CA","city":"Palmdale","postal":"93551","priority":1},{"lat":"45.204604","lng":"-93.4008763","id":7712709,"name":"PINEWSKI'S SKI SHOP","phone":"(763) 422-0329","address":"546 W. Main Street","state":"MN","city":"Anoka","postal":"55303","priority":1},{"lat":"42.9713915","lng":"-70.8359651","id":7712711,"name":"PIONEERS BOARD SHOP","phone":"(603) 964-7714","address":"62 Lafayette Rd","state":"NH","city":"North Hampton","postal":"03862","priority":1},{"lat":"35.9127702","lng":"-84.0983524","id":7712716,"name":"PLUTO SPORTS - 7 OAKS DR.","address":"245 Seven Oaks Dr. N.","state":"TN","city":"Knoxville","postal":"37922","priority":1},{"lat":"35.9565685","lng":"-83.9337152","id":7712718,"name":"PLUTO SPORTS - KNOXVILLE","phone":"(865) 523-0045","address":"1723 W. Cumberland Ave. S.W.","state":"TN","city":"Knoxville","postal":"37916","priority":1},{"lat":"36.106477","lng":"-115.2980657","id":7712722,"name":"POWDER & SUN - LAS VEGAS","address":"4555 S. Fort Apache Rd.Suite# 128","state":"NV","city":"Las Vegas","postal":"89147","priority":1},{"lat":"40.824197","lng":"-96.6921872","id":7712725,"name":"PRECISION SKATEBOARDS","phone":"402-476-3044","address":"2005 Y St.Suite B","state":"NE","city":"Lincoln","postal":"68503","priority":1},{"lat":"42.9618224","lng":"-85.6671727","id":7712728,"name":"PREMIER SKATEBOARDING","phone":"(616) 742-2660","address":"14 Weston St. SE","state":"MI","city":"Grand Rapids","postal":"49503","priority":1},{"lat":"32.7471375","lng":"-117.2518466","id":7712732,"name":"PRIDE","phone":"(619) 222-1575","address":"5035 Newport Ave.","state":"CA","city":"San Diego","postal":"92107","priority":1},{"lat":"40.8032369","lng":"-124.1544454","id":7712734,"name":"PRO SPORTS CENTER","phone":"(707) 443-6328","address":"1600 5th Street","state":"CA","city":"Eureka","postal":"95501","priority":1},{"lat":"40.1777361","lng":"-74.0259499","id":7712736,"name":"PRO SKATEBOARD SHOP","phone":"(732) 280-7528","address":"1108 Main St.","state":"NJ","city":"Belmar","postal":"07719","priority":1},{"lat":"42.2996011","lng":"-83.2748936","id":7712739,"name":"REFUGE SKATEBOARD SHOP","phone":"(313) 624-8290","address":"24334 Michigan Ave.","state":"MI","city":"Dearborn","postal":"48124","priority":1},{"lat":"47.4285882","lng":"-120.3151781","id":7712741,"name":"REVOLUTION SNOW & SKATE","phone":"(509) 665-6663","address":"246 N. Wenatchee Ave.","state":"WA","city":"Wenatchee","postal":"98801","priority":1},{"lat":"33.9486526","lng":"-84.3338413","id":7712744,"name":"RUIN BOARDING SUPPLY","phone":"(404) 943-1178","address":"5521 Chamblee-Dunwoody Rd","state":"GA","city":"Dunwoody","postal":"30338","priority":1},{"lat":"30.4030687","lng":"-91.0162545","id":7712746,"name":"RUKUS BOARDSPORTS","phone":"(225) 755-3970","address":"5601 Jones Creek Rd. Ste. G","state":"LA","city":"Baton Rouge","postal":"70817","priority":1},{"lat":"30.202067","lng":"-92.0650453","id":7712749,"name":"RUKUS BOARDSPORTS - LAFAYETTE","address":"3816 W. Congress St.","state":"LA","city":"Lafayette","postal":"70506","priority":1},{"lat":"30.3951781","lng":"-90.0958162","id":7712750,"name":"RUKUS BOARDSPORTS - MANDEVILLE","address":"4240 Hwy. 22","state":"LA","city":"Mandeville","postal":"70471","priority":1},{"lat":"40.7001915","lng":"-111.8066873","id":7712752,"name":"SALTY PEAKS - SALT LAKE CITY","phone":"(801) 467-8111","address":"3055 East  3300 South","state":"UT","city":"Salt Lake City","postal":"84109","priority":1},{"lat":"40.0285553","lng":"-105.2527144","id":7712754,"name":"SATELLITE","phone":"(303) 374-3275","address":"3044 Valmont Rd.","state":"CO","city":"Boulder","postal":"80301","priority":1},{"lat":"37.412859","lng":"-79.1408082","id":7712756,"name":"SCENE THREE","phone":"(434) 385-4431","address":"1107 Main St.","state":"VA","city":"Lynchburg","postal":"24504","priority":1},{"lat":"33.476916","lng":"-111.9265994","id":7712758,"name":"SCOTTSDALE SIDEWALK SURFER","phone":"(480) 994-1017","address":"2602 N. Scottsdale Road","state":"AZ","city":"Scottsdale","postal":"85257","priority":1},{"lat":"40.5881473","lng":"-73.6664768","id":7712760,"name":"SEA LEVEL","phone":"(516) 431-5431","address":"70 West Park Ave.","state":"NY","city":"Long Beach","postal":"11561","priority":1},{"lat":"36.8281145","lng":"-76.0641654","id":7712762,"name":"17TH STREET SURF SHOP","phone":"(757) 486-5055","address":"508 Viking Dr.","state":"VA","city":"Virginia Beach","postal":"23452","priority":1},{"lat":"34.2331013","lng":"-77.8762977","id":7712765,"name":"17TH STREET SURF SHOP - NC","address":"414 S. College Rd.","state":"NC","city":"Wilmington","postal":"28403","priority":1},{"lat":"33.6972518","lng":"-117.9558796","id":7712766,"name":"SHOE LOCKER - FOUTAIN VALLEY","phone":"(714) 964-9061","address":"18291 Brookhurst St #1","state":"CA","city":"Fountain Valley","postal":"92708","priority":1},{"lat":"38.7161839","lng":"-75.076537","id":7712769,"name":"SIERRA MOON","phone":"(302) 227-3622","address":"16 Rehoboth Ave.","state":"DE","city":"Rehoboth Beach","postal":"19971","priority":1},{"lat":"36.1538473","lng":"-86.7729403","id":7712774,"name":"SIXTH AVENUE SKATEPARK","phone":"(615) 843-4006","address":"601 4th Avenue South","state":"TN","city":"Nashville","postal":"37210","priority":1},{"lat":"35.0934666","lng":"-106.5332498","id":7712776,"name":"SKATE CITY SUPPLY","address":"1311 Eubank Blvd. N.E.","state":"NM","city":"Albuquerque","postal":"87112","priority":1},{"lat":"27.9659302","lng":"-82.4103475","id":7712781,"name":"SKATEPARK OF TAMPA","phone":"(813) 621-6793","address":"4215 E.Columbus Drive","state":"FL","city":"Tampa","postal":"33605","priority":1},{"lat":"39.53426","lng":"-76.3505911","id":7712787,"name":"SKATOLOGY","phone":"(410) 838-7884","address":"139 Thomas St.","state":"MD","city":"Bel Air","postal":"21014","priority":1},{"lat":"35.252275","lng":"-120.6716652","id":7712788,"name":"SKATE WAREHOUSE","phone":"1-800-467-5283","address":"3566 S. Higuera St. Suite 300","state":"CA","city":"San Luis Obispo","postal":"93401","priority":1},{"lat":"44.1449122","lng":"-123.0575178","id":7712791,"name":"TACTICS BOARDSHOP","phone":"(541) 349-0087","address":"91330 N Coburg Industrial Way","state":"OR","city":"Coburg","postal":"97408","priority":1},{"lat":"41.6351593","lng":"-70.9261391","id":7712793,"name":"SOLSTICE","phone":"(508) 994-8675","address":"801 Purchase St.","state":"MA","city":"New Bedford","postal":"02740","priority":1},{"lat":"42.5662372","lng":"-87.844651","id":7712795,"name":"SOUTHPORT RIGGING","phone":"(262) 652-5434","address":"2926 75th Street Hwy 50","state":"WI","city":"Kenosha","postal":"53143","priority":1},{"lat":"29.6589899","lng":"-95.2332338","id":7712805,"name":"SOUTHSIDE SKATE PARK","phone":"(713) 946-0414","address":"510 Iowa St.","state":"TX","city":"South Houston","postal":"77587","priority":1},{"lat":"43.6697134","lng":"-92.9741739","id":7712812,"name":"SOUTH CENTRAL ATHLETE","phone":"(507) 433-6450","address":"110 4th Ave NE","state":"MN","city":"Austin","postal":"55912","priority":1},{"lat":"36.7395761","lng":"-108.278674","id":7712818,"name":"SOLE SOURCE - FARMINGTON","phone":"(505) 564-2057","address":"4601 W. Main St. Ste. S10","state":"NM","city":"Farmington","postal":"87401","priority":1},{"lat":"35.5320267","lng":"-108.6355577","id":7712827,"name":"SPORTS SOURCE - GALLUP","phone":"(505) 722-9125","address":"1300 W. I40 Frontage Rd. Ste. 66","state":"NM","city":"Gallup","postal":"87301","priority":1},{"lat":"33.8720725","lng":"-118.3954781","id":7712837,"name":"SPYDER BOARDS","phone":"(310) 374-8276","address":"2461 Pacific Coast Hwy.","state":"CA","city":"Hermosa Beach","postal":"90254","priority":1},{"lat":"33.8623743","lng":"-118.4005414","id":7712846,"name":"SPYDER BOARDS #2","phone":"(310) 374-2494","address":"65 Pier Ave.","state":"CA","city":"Hermosa Beach","postal":"90254","priority":1},{"lat":"33.7669647","lng":"-84.349404","id":7712853,"name":"STRATOSPHERE","phone":"(404) 521-3510","address":"466 Moreland Ave. NE","state":"GA","city":"Atlanta","postal":"30307","priority":1},{"lat":"48.4111023","lng":"-114.3370951","id":7712862,"name":"STUMPTOWN SNOWBOARDS","phone":"(406) 862-0955","address":"128 Central Avenue","state":"MT","city":"Whitefish","postal":"59937","priority":1},{"lat":"34.0954374","lng":"-117.7196367","id":7712865,"name":"STIX RIDE SHOP - CLAREMONT","address":"175 N. Indian Hill Blvd.","state":"CA","city":"Claremont","postal":"91711","priority":1},{"lat":"34.1473311","lng":"-118.0012938","id":7712868,"name":"STYX","phone":"(626) 301-9059","address":"421 S. Myrtle Ave.","state":"CA","city":"Monrovia","postal":"91016","priority":1},{"lat":"45.487279","lng":"-122.804185","id":7712870,"name":"SUBLIMITY SNOW & SKATE","phone":"(503) 643-0919","address":"12404 SW Broadway","state":"OR","city":"Beaverton","postal":"97005","priority":1},{"lat":"38.9323769","lng":"-74.9239142","id":7712872,"name":"SUMMER SUN SURF SHOP","phone":"(609) 884-3422","address":"315 Washington St. Mall","state":"NJ","city":"Cape May","postal":"08204","priority":1},{"lat":"33.1229539","lng":"-117.3175914","id":7712873,"name":"SUN DIEGO CARLSBAD OUTLET","address":"5620 Paseo Del Norte Suite 119C","state":"CA","city":"Carlsbad","postal":"92008","priority":1},{"lat":"32.7700062","lng":"-117.1633768","id":7712875,"name":"SUN DIEGO FASHION VALLEY","address":"7007 Friars Road Suite 349","state":"CA","city":"San Diego","postal":"92108","priority":1},{"lat":"32.7700686","lng":"-117.2516744","id":7712877,"name":"SUN DIEGO MISSION BEACH","address":"3126 Mission Blvd. Suite A","state":"CA","city":"San Diego","postal":"92109","priority":1},{"lat":"33.0714192","lng":"-117.0662262","id":7712879,"name":"SUN DIEGO NORTH COUNTY FAIR","address":"200 E. Via Rancho ParkwaySuite 179","state":"CA","city":"Escondido","postal":"92025","priority":1},{"lat":"32.8045226","lng":"-116.9675401","id":7712881,"name":"SUN DIEGO PARKWAY PLAZA","address":"477 Parkway Plaza","state":"CA","city":"El Cajon","postal":"92020","priority":1},{"lat":"32.8710546","lng":"-117.2114223","id":7712883,"name":"SUN DIEGO UTC","address":"4545 La Jolla Village Dr. E-17","state":"CA","city":"San Diego","postal":"92122","priority":1},{"lat":"32.7700062","lng":"-117.1633768","id":7712885,"name":"THE BLUE ROOM","address":"7007 Friars Road Suite 212","state":"CA","city":"San Diego","postal":"92108","priority":1},{"lat":"30.2878859","lng":"-81.3983385","id":7712887,"name":"SUNRISE SURF SHOP","phone":"(904) 241-0822","address":"834 Beach Blvd.","state":"FL","city":"Jacksonville Beach","postal":"32250","priority":1},{"lat":"34.0792975","lng":"-118.3617231","id":7712888,"name":"SUPREME - LOS ANGELES","address":"439 N. Fairfax Ave.","state":"CA","city":"Los Angeles","postal":"90036","priority":1},{"lat":"40.7251074","lng":"-74.0005565","id":7712890,"name":"SUPREME - NEW YORK #1","phone":"(212)274-8855","address":"121 Wooster St.","state":"NY","city":"New York","postal":"10012","priority":1},{"lat":"40.7239832","lng":"-73.996478","id":7712892,"name":"SUPREME - NEW YORK #2","phone":"(212) 966-7799","address":"274 Lafayette St.","state":"NY","city":"New York","postal":"10012","priority":1},{"lat":"34.6587731","lng":"-120.4579757","id":7712893,"name":"SURF CONNECTION","phone":"(805) 736-1730","address":"1307-C N. H St.","state":"CA","city":"Lompoc","postal":"93436","priority":1},{"lat":"18.5063982","lng":"-67.1328228","id":7712896,"name":"SURF ZONE","address":"Cliff Rd. Bldg #704","state":"PR","city":"Aguadilla","postal":"00604","priority":1},{"lat":"43.6232481","lng":"-83.9044731","id":7712898,"name":"SURF SKATE & WHEEL","phone":"(989) 686-8088","address":"3778 E. Wilder Road","state":"MI","city":"Bay City","postal":"48706","priority":1},{"lat":"33.6342287","lng":"-117.9182637","id":7712899,"name":"SURFSIDE SPORTS","phone":"(949) 675-2855","address":"233 E. 17th St.","state":"CA","city":"Costa Mesa","postal":"92627","priority":1},{"lat":"44.4583705","lng":"-73.1463176","id":7712902,"name":"TALENT SKATE PARK","phone":"(802) 864-2069","address":"2069 Williston Rd.","state":"VT","city":"South Burlington","postal":"05403","priority":1},{"lat":"30.4877371","lng":"-97.6499965","id":7712903,"name":"ROUND ROCK SKATEBOARDS","address":"2471 A.W. Grimes Blvd.Suite# 310","state":"TX","city":"Round Rock","postal":"78664","priority":1},{"lat":"42.0968118","lng":"-72.6007994","id":7712904,"name":"THEORY SKATE SHOP-W SPRINGFLD","phone":"(413) 731-7528","address":"246 Memorial Ave.","state":"MA","city":"West Springfield","postal":"01089","priority":1},{"lat":"47.6142664","lng":"-122.3178335","id":7712906,"name":"35th NORTH","phone":"(206) 320-1252","address":"1100 East Pike Street","state":"WA","city":"Seattle","postal":"98122","priority":1},{"lat":"47.3438521","lng":"-122.3126853","id":7712908,"name":"THIRTYFIFTH AVE. SKATE","phone":"(253) 839-5202","address":"28717 S. Pacific Hwy. Ste.5","state":"WA","city":"Federal Way","postal":"98003","priority":1},{"lat":"41.2436544","lng":"-75.8853723","id":7712910,"name":"TOP OF THE SLOPE","phone":"(570) 822-6627","address":"100 S. Main St.","state":"PA","city":"Wilkes Barre","postal":"18701","priority":1},{"lat":"39.3290157","lng":"-120.1847729","id":7712912,"name":"TOTALLY BOARD - TRUCKEE","phone":"(530) 582-1584","address":"10060 Bridge St.","state":"CA","city":"Truckee","postal":"96161","priority":1},{"lat":"34.2685041","lng":"-119.2486042","id":7712913,"name":"TOXIC","phone":"805-644-1467","address":"3301 E. Main St.Suite# 2278","state":"CA","city":"Ventura","postal":"93003","priority":1},{"lat":"42.2328626","lng":"-88.3343566","id":7712915,"name":"TRADEWINDS COVE","phone":"(815) 455-2255","address":"372 Virginia Street","state":"IL","city":"Crystal Lake","postal":"60014","priority":1},{"lat":"30.2872604","lng":"-97.7419673","id":7712916,"name":"TYLERS - AUSTIN #1","phone":"(903) 561-4703","address":"2338 Guadalupe","state":"TX","city":"Austin","postal":"78701","priority":1},{"lat":"30.2921115","lng":"-97.8259962","id":7712918,"name":"TYLERS - AUSTIN #2","phone":"(903) 561-4703","address":"701 Capitol Of Texas Hwy. S.","state":"TX","city":"Austin","postal":"78746","priority":1},{"lat":"32.8507301","lng":"-96.8147107","id":7712920,"name":"TYLERS - DALLAS","phone":"903-561-4703","address":"5710 W. Lovers Lane","state":"TX","city":"Dallas","postal":"75209","priority":1},{"lat":"32.9434564","lng":"-97.1314888","id":7712921,"name":"TYLERS - SOUTH LAKE","address":"1420 Civic Pl","state":"TX","city":"Southlake","postal":"76092","priority":1},{"lat":"32.2906243","lng":"-95.3034303","id":7712923,"name":"TYLERS - TYLER","phone":"(903) 561-4703","address":"5403 S. Broadway","state":"TX","city":"Tyler","postal":"75703","priority":1},{"lat":"30.1665682","lng":"-95.4588606","id":7712924,"name":"TYLERS - WOODLANDS","address":"1555 Lake Woodlands Dr.Suite# 400","state":"TX","city":"The Woodlands","postal":"77380","priority":1},{"lat":"41.914394","lng":"-87.6841215","id":7712926,"name":"UPRISE","phone":"(773) 342-7763","address":"1820 North Milwaukee","state":"IL","city":"Chicago","postal":"60647","priority":1},{"lat":"33.7384821","lng":"-118.2840998","id":7712928,"name":"URBAN FEET","address":"329 W. 6th St.","state":"CA","city":"San Pedro","postal":"90731","priority":1},{"lat":"34.1460125","lng":"-118.154005","id":7712930,"name":"VAL SURF - PASADENA","phone":"(818) 769-3337","address":"169 W. Colorado Blvd.","state":"CA","city":"Pasadena","postal":"91105","priority":1},{"lat":"34.1698382","lng":"-118.8358066","id":7712931,"name":"VAL SURF - THOUSAND OAKS","phone":"(805) 497-1166","address":"3055 E.Thousand Oaks Blvd.","state":"CA","city":"Thousand Oaks","postal":"91362","priority":1},{"lat":"34.4124428","lng":"-118.5559012","id":7712933,"name":"VAL SURF - VALENCIA","phone":"(661) 222-7288","address":"24140 Valencia Blvd.","state":"CA","city":"Valencia","postal":"91355","priority":1},{"lat":"34.1580197","lng":"-118.4049002","id":7712935,"name":"VAL SURF - VALLEY VILLAGE","phone":"(818) 769-3337","address":"4810 Whitsett Ave.","state":"CA","city":"Valley Village","postal":"91617","priority":1},{"lat":"34.1651547","lng":"-118.6252322","id":7712937,"name":"VAL SURF - WOODLAND HILLS","phone":"(818) 225-8177","address":"22864 Ventura Blvd.","state":"CA","city":"Woodland Hills","postal":"91364","priority":1},{"lat":"34.4124428","lng":"-118.5559012","id":7712938,"name":"VAL SURF- VALENCIA II","phone":"(661) 222-7288","address":"24140 Valencia Blvd.","state":"CA","city":"Valencia","postal":"91355","priority":1},{"lat":"34.2278424","lng":"-118.500971","id":7712940,"name":"VALLEY SKATE AND SURF","phone":"(818) 892-5566","address":"16914 Parthenia St.","state":"CA","city":"North Hills","postal":"91343","priority":1},{"lat":"38.9469585","lng":"-119.9611727","id":7712942,"name":"THE VILLAGE - S. LAKE TAHOE #1","phone":"(530) 542-2390","address":"3552 Lake Tahoe Blvd.(Hwy.50)","state":"CA","city":"South Lake Tahoe","postal":"96150","priority":1},{"lat":"41.4226485","lng":"-81.9042661","id":7712943,"name":"VILLAGE SNOWBOARDS","phone":"(440) 779-1242","address":"25545 Lorain Rd.","state":"OH","city":"North Olmsted","postal":"44070","priority":1},{"lat":"36.9530245","lng":"-120.0780233","id":7712945,"name":"VIVA SKATEBOARDS","phone":"(559) 664-8997","address":"1709 Howard Rd.","state":"CA","city":"Madera","postal":"93637","priority":1},{"lat":"48.7475472","lng":"-122.4822061","id":7712947,"name":"WASHINGTON WINDSPORTS","phone":"(360) 676-1146","address":"104 E Maple Street #102","state":"WA","city":"Bellingham","postal":"98225","priority":1},{"lat":"30.4181863","lng":"-87.2055622","id":7712949,"name":"WBZ \/ WATERBOYZ","phone":"(850) 475-1080","address":"380 N. 9th Avenue","state":"FL","city":"Pensacola","postal":"32503","priority":1},{"lat":"39.4043119","lng":"-76.5995911","id":7712951,"name":"WAVE DANCER","phone":"410.329.9770","address":"825 Dulaney Valley Rd.Towson Town Center #306","state":"MD","city":"Towson","postal":"21204","priority":1},{"lat":"37.6471334","lng":"-118.9691706","id":7712954,"name":"WAVE RAVE","phone":"(760) 934-2471","address":"3203 Main St.","state":"CA","city":"Mammoth Lakes","postal":"93546","priority":1},{"lat":"36.0893065","lng":"-75.7083907","id":7712955,"name":"WAVE RIDING VEHICLES-KITTY HWK","phone":"(252) 261-7952","address":"4812 Croatan Hwy.","state":"NC","city":"Kitty Hawk","postal":"27949","priority":1},{"lat":"36.8463083","lng":"-75.9831168","id":7712959,"name":"WAVE RIDING VEHICLES-VA BEACH","phone":"(757) 422-8823","address":"1900 Cypress Ave.","state":"VA","city":"Virginia Beach","postal":"23451","priority":1},{"lat":"36.849258","lng":"-119.788558","id":7712960,"name":"WAVELENGTHS - FRESNO","phone":"(559) 431-8823","address":"145 Paseo Del Centro","state":"CA","city":"Fresno","postal":"93720","priority":1},{"lat":"35.3676163","lng":"-120.8537076","id":7712962,"name":"WAVELENGTHS - MORRO BAY","phone":"(805) 772-4153","address":"998 Embarcadero","state":"CA","city":"Morro Bay","postal":"93442","priority":1},{"lat":"32.9809028","lng":"-117.081201","id":7712965,"name":"WAVELINES","phone":"(858) 675-9696","address":"11658 Carmel Mountain Rd","state":"CA","city":"San Diego","postal":"92128","priority":1},{"lat":"41.4768238","lng":"-81.7914589","id":7712966,"name":"WESTSIDE SKATE","phone":"(216) 226-2470","address":"14047 Madison Ave.","state":"OH","city":"Lakewood","postal":"44107","priority":1},{"lat":"28.1293081","lng":"-82.740258","id":7712968,"name":"WESTSIDE SKATE SHOP","phone":"(727) 939-2308","address":"39332 U.S. 19 N.","state":"FL","city":"Tarpon Springs","postal":"34689","priority":1},{"lat":"27.9088126","lng":"-82.7294151","id":7712970,"name":"WESTSIDE SKATE SHOP-CLEARWATER","address":"18370 U.S. 19 N.","state":"FL","city":"Clearwater","postal":"33764","priority":1},{"lat":"38.9679333","lng":"-95.2447369","id":7712971,"name":"WHITE CHOCOLATE EXPERIENCE","phone":"785-856-9246","address":"846 Illinois St Ste A","state":"KS","city":"Lawrence","postal":"66044","priority":1},{"lat":"38.9737272","lng":"-74.8341498","id":7712973,"name":"WILD OCEAN SURF SHOP #1","phone":"(609) 522-5025","address":"215 East Fern Road","state":"NJ","city":"Wildwood","postal":"08260","priority":1},{"lat":"38.9795441","lng":"-74.8215378","id":7712974,"name":"WILD OCEAN SURF SHOP #2","phone":"(609) 729-0004","address":"5011 Ocean Ave.","state":"NJ","city":"Wildwood","postal":"08260","priority":1},{"lat":"45.6795369","lng":"-111.0450886","id":7712976,"name":"WORLD BOARDS","phone":"(406) 587-1707","address":"601 W.Main Street","state":"MT","city":"Bozeman","postal":"59715","priority":1},{"lat":"37.7070093","lng":"-121.9358631","id":7712978,"name":"WORLD OF SHOES","phone":"(925) 828-1497","address":"7871 Amador Valley","state":"CA","city":"Dublin","postal":"94568","priority":1},{"lat":"34.7403064","lng":"-86.5923499","id":7712980,"name":"WORLD CONSPIRACY SPORTS","address":"610 Pratt Avenue Northwest","state":"AL","city":"Huntsville","postal":"35801","priority":1},{"lat":"40.5879872","lng":"-105.0749441","id":7712981,"name":"THE WRIGHT LIFE","phone":"(970) 484-6932","address":"200 Linden","state":"CO","city":"Fort Collins","postal":"80524","priority":1},{"lat":"34.0522795","lng":"-118.3083861","id":7712983,"name":"XTREME BOARDSHOP - LA","address":"3250 W Olympic Blvd  Unit 30-E","state":"CA","city":"Los Angeles","postal":"90006","priority":1},{"lat":"33.851768","lng":"-118.1399369","id":7712985,"name":"XTREME BOARDSHOP - LAKEWOOD","address":"300 Lakewood Center Mall","state":"CA","city":"Lakewood","postal":"90712","priority":1},{"lat":"33.7747664","lng":"-117.8696496","id":7712987,"name":"XTREME BOARDSHOP - SANTA ANA","address":"2800 N. Main St.Suite# 828","state":"CA","city":"Santa Ana","postal":"92705","priority":1},{"lat":"33.9856403","lng":"-118.3948816","id":7712989,"name":"XTREME BOARDSHOP - SEPULVEDA","address":"6000 Sepulveda Blvd.Suite #2141","state":"CA","city":"Culver City","postal":"90230","priority":1},{"lat":"38.5786791","lng":"-92.2168139","id":7712991,"name":"XTREME TRENDZ","phone":"(605) 996-0757","address":"744 W. Stadium Blvd.Unit# H","state":"MO","city":"Jefferson City","postal":"65109","priority":1},{"lat":"34.5821538","lng":"-112.3515903","id":7712994,"name":"WOOD ON WHEELS","phone":"(928) 759-0901","address":"6480 East Hwy. 69","state":"AZ","city":"Prescott Valley","postal":"86314","priority":1},{"lat":"61.2168501","lng":"-149.8876841","id":7712995,"name":"ZUMIEZ - 5TH AVE","phone":"(907) 277-9088","address":"320 W. 5th Ave. Ste. 212","state":"AK","city":"Anchorage","postal":"99501","priority":1},{"lat":"45.2444884","lng":"-93.6611378","id":7712997,"name":"ZUMIEZ - ALBERTVILLE OUTLET","phone":"(763) 497-1076","address":"6500 Labeaux Ave. N.E. Ste. E-70","state":"MN","city":"Elk River","postal":"55330","priority":1},{"lat":"47.8276689","lng":"-122.2741425","id":7712999,"name":"ZUMIEZ - ALDERWOOD MALL","phone":"(425) 776-4323","address":"3000 184th St. S.W. Ste. 860","state":"WA","city":"Lynnwood","postal":"98037","priority":1},{"lat":"36.763334","lng":"-108.149746","id":7713000,"name":"ZUMIEZ - ANIMAS VALLEY MALL","phone":"(505) 325-6738","address":"4601 E. Main St. Ste. 730","state":"NM","city":"Farmington","postal":"87402","priority":1},{"lat":"34.6044362","lng":"-118.1519744","id":7713002,"name":"ZUMIEZ - ANTELOPE VALLEY","phone":"(661) 267-0628","address":"1233 W. Rancho Vista Blvd. Ste. 725","state":"CA","city":"Palmdale","postal":"93551","priority":1},{"lat":"44.0052795","lng":"-92.4796098","id":7713003,"name":"ZUMIEZ - APACHE MALL","phone":"(507) 282-1219","address":"1010 Apache Mall","state":"MN","city":"Rochester","postal":"55902","priority":1},{"lat":"38.601162","lng":"-121.4269354","id":7713005,"name":"ZUMIEZ - ARDEN FAIR MALL","phone":"(916) 924-1547","address":"1689 Arden Way Ste. 2116","state":"CA","city":"Sacramento","postal":"95815","priority":1},{"lat":"33.3832233","lng":"-111.9644216","id":7713006,"name":"ZUMIEZ - ARIZONA MILLS OUTLETS","phone":"(480) 491-7707","address":"5000 S. Arizona Mills Cir. Ste. 616","state":"AZ","city":"Tempe","postal":"85282","priority":1},{"lat":"33.6420995","lng":"-112.225533","id":7713007,"name":"ZUMIEZ - ARROWHEAD TOWN CENTER","phone":"(623) 776-7037","address":"7700 W. Arrowhead Towne Ctr. Ste. 2287","state":"AZ","city":"Glendale","postal":"85308","priority":1},{"lat":"47.2961054","lng":"-122.2457319","id":7713009,"name":"ZUMIEZ - AUBURN SUPERMALL","phone":"(253) 931-1916","address":"1100 Supermall Way Ste. 1321","state":"WA","city":"Federal Way","postal":"98001","priority":1},{"lat":"43.3269257","lng":"-73.6775341","id":7713010,"name":"ZUMIEZ - AVIATION MALL","phone":"(518) 761-9443","address":"578 Aviation Rd.","state":"NY","city":"Queensbury","postal":"12804","priority":1},{"lat":"30.2573622","lng":"-97.8072249","id":7713012,"name":"ZUMIEZ - BARTON CREEK MALL","phone":"(512) 306-1705","address":"2901 S. Capital of Texas Hwy.","state":"TX","city":"Austin","postal":"78746","priority":1},{"lat":"29.5425083","lng":"-95.1492899","id":7713013,"name":"ZUMIEZ - BAYBROOK MALL","phone":"(281) 486-4069","address":"1358 Baybrook Mall","state":"TX","city":"Friendswood","postal":"77546","priority":1},{"lat":"40.7793268","lng":"-124.1906672","id":7713015,"name":"ZUMIEZ - BAYSHORE MALL","phone":"(707) 442-1800","address":"3300 Broadway Ste. 422","state":"CA","city":"Eureka","postal":"95501","priority":1},{"lat":"47.614956","lng":"-122.203515","id":7713018,"name":"ZUMIEZ - BELLEVUE SQUARE","phone":"(425) 451-0236","address":"244 Bellevue Square Mall","state":"WA","city":"Bellevue","postal":"98004","priority":1},{"lat":"48.7854856","lng":"-122.4916451","id":7713020,"name":"ZUMIEZ - BELLIS FAIR","phone":"(360) 671-2562","address":"1 Bellis Fair Pkwy. Ste. 610","state":"WA","city":"Bellingham","postal":"98226","priority":1},{"lat":"43.6086039","lng":"-116.2782517","id":7713021,"name":"ZUMIEZ - BOISE TOWN SQUARE","phone":"(208) 376-9958","address":"350 N. Milwaukee St. Ste. 2170","state":"ID","city":"Boise","postal":"83704","priority":1},{"lat":"41.7176218","lng":"-88.0418344","id":7713022,"name":"ZUMIEZ - BOLINGBROOK","phone":"(630) 739-2063","address":"623 E. Boughton Rd. Ste. 145","state":"IL","city":"Bolingbrook","postal":"60440","priority":1},{"lat":"40.7731368","lng":"-73.5308153","id":7713025,"name":"ZUMIEZ - BROADWAY MALL","phone":"(516) 933-7195","address":"358 Broadway Mall Ste. 463","state":"NY","city":"Hicksville","postal":"11801","priority":1},{"lat":"40.4239191","lng":"-74.3825036","id":7713026,"name":"ZUMIEZ - BRUNSWICK SQUARE","phone":"(732) 257-7142","address":"755 State Route 18 Ste. 1B","state":"NJ","city":"East Brunswick","postal":"08816","priority":1},{"lat":"34.1833774","lng":"-118.3124048","id":7713027,"name":"ZUMIEZ - BURBANK TOWN CENTER","phone":"(818) 972-2497","address":"201 E. Magnolia Blvd. Ste. 228","state":"CA","city":"Burbank","postal":"91502","priority":1},{"lat":"44.7438667","lng":"-93.2893553","id":7713029,"name":"ZUMIEZ - BURNSVILLE CENTER","phone":"(952) 892-0688","address":"1178 Burnsville Ctr. Ste. 1045","state":"MN","city":"Burnsville","postal":"55306","priority":1},{"lat":"41.7559126","lng":"-111.8338061","id":7713031,"name":"ZUMIEZ - CACHE VALLEY","phone":"(435) 787-0482","address":"1300 N. Main St. Ste. 1123","state":"UT","city":"Logan","postal":"84341","priority":1},{"lat":"47.0417162","lng":"-122.9358635","id":7713032,"name":"ZUMIEZ - CAPITAL MALL","phone":"(360) 943-8477","address":"625 Black Lake Blvd. S.W. Ste. K-11","state":"WA","city":"Olympia","postal":"98502","priority":1},{"lat":"36.9759809","lng":"-121.9668627","id":7713034,"name":"ZUMIEZ - CAPITOLA MALL","phone":"(831) 465-1752","address":"1855 41st Ave. Ste. G-8","state":"CA","city":"Capitola","postal":"95010","priority":1},{"lat":"33.1781877","lng":"-117.3324498","id":7713035,"name":"ZUMIEZ - CARLSBAD","phone":"(760) 730-0243","address":"2525 El Camino Real","state":"CA","city":"Carlsbad","postal":"92008","priority":1},{"lat":"43.0668627","lng":"-76.1711529","id":7713038,"name":"ZUMIEZ - CAROUSEL CENTER","phone":"(315) 466-0166","address":"320 Hiawatha Blvd. W. Ste. E-105","state":"NY","city":"Syracuse","postal":"13290","priority":1},{"lat":"48.4631828","lng":"-122.3386809","id":7713039,"name":"ZUMIEZ - CASCADE MALL","phone":"(360) 757-1173","address":"330 Cascade Mall Dr.","state":"WA","city":"Burlington","postal":"98233","priority":1},{"lat":"33.301838","lng":"-111.8999197","id":7713041,"name":"ZUMIEZ - CHANDLER FASHION CENT","phone":"(480) 857-1619","address":"3111 W. Chandler Blvd. Ste. 2190","state":"AZ","city":"Chandler","postal":"85226","priority":1},{"lat":"38.9479066","lng":"-104.7948731","id":7713043,"name":"ZUMIEZ - CHAPEL HILLS","phone":"(719) 532-1655","address":"1710 Briargate Blvd. Ste. 801","state":"CO","city":"Colorado Springs","postal":"80920","priority":1},{"lat":"41.9136717","lng":"-88.3135659","id":7713045,"name":"ZUMIEZ - CHARLESTOWNE MALL","phone":"(630) 377-8600","address":"3800 E. Main St. Ste. G-112","state":"IL","city":"Saint Charles","postal":"60174","priority":1},{"lat":"42.2461735","lng":"-88.9757903","id":7713047,"name":"ZUMIEZ - CHERRYVALE MALL","phone":"(815) 332-9162","address":"7200 Harrison Ave.","state":"IL","city":"Rockford","postal":"61112","priority":1},{"lat":"41.1622028","lng":"-104.8050567","id":7713049,"name":"ZUMIEZ - CHEYENNE","phone":"(307) 634-5640","address":"1400 Dell Range Rd. Ste. 75","state":"WY","city":"Cheyenne","postal":"82009","priority":1},{"lat":"41.8009603","lng":"-88.2727111","id":7713050,"name":"ZUMIEZ - CHICAGO PREMIUM OUTLE","phone":"(630) 499-8980","address":"1650 Premium Outlet Blvd. Ste. 403","state":"IL","city":"Aurora","postal":"60504","priority":1},{"lat":"39.7289393","lng":"-121.8055465","id":7713051,"name":"ZUMIEZ - CHICO MALL","phone":"(530) 342-0106","address":"1950 E. 20th St. Ste. D-409","state":"CA","city":"Chico","postal":"95928","priority":1},{"lat":"45.434954","lng":"-122.5757136","id":7713053,"name":"ZUMIEZ - CLACKAMAS TOWN CENTER","phone":"(503) 659-8996","address":"12000 S.E. 82nd Ave. Ste. F1-003","state":"OR","city":"Happy Valley","postal":"97086","priority":1},{"lat":"42.8583118","lng":"-73.7784122","id":7713055,"name":"ZUMIEZ - CLIFTON PARK CENTER","phone":"(518) 371-2543","address":"22 Clifton County Rd.","state":"NY","city":"Clifton Park","postal":"12065","priority":1},{"lat":"26.1695951","lng":"-81.7948598","id":7713056,"name":"ZUMIEZ - COASTLAND CENTER","phone":"(239) 403-7661","address":"1828 Tamiami Trail N. Ste. L8","state":"FL","city":"Naples","postal":"34102","priority":1},{"lat":"33.0141669","lng":"-96.7136126","id":7713058,"name":"ZUMIEZ - COLLIN CREEK MALL","phone":"(972) 578-8202","address":"811 N. Central Expressway","state":"TX","city":"Plano","postal":"75075","priority":1},{"lat":"39.731818","lng":"-105.1567228","id":7713060,"name":"ZUMIEZ - COLORADO MILLS","phone":"(303) 273-0803","address":"14500 W. Colfax Ave. Ste. 371","state":"CO","city":"Golden","postal":"80401","priority":1},{"lat":"46.2260857","lng":"-119.2274195","id":7713062,"name":"ZUMIEZ - COLUMBIA CENTER","phone":"(509) 783-0854","address":"1321 N. Columbia Center Blvd. # 385","state":"WA","city":"Kennewick","postal":"99336","priority":1},{"lat":"39.82245","lng":"-75.5445362","id":7713064,"name":"ZUMIEZ - CONCORD","phone":"(302) 478-2809","address":"4737 Concord Pike Ste. 530","state":"DE","city":"Wilmington","postal":"19803","priority":1},{"lat":"35.105509","lng":"-106.5693718","id":7713065,"name":"ZUMIEZ - CORONADO CENTER","phone":"(505) 872-1217","address":"6600 Menaul Blvd. N.E. Ste. H-11A","state":"NM","city":"Albuquerque","postal":"87110","priority":1},{"lat":"28.0170678","lng":"-82.7342717","id":7713067,"name":"ZUMIEZ - COUNTRYSIDE","phone":"(727) 725-3032","address":"27001 US Hwy. 19 N. Ste. 2062","state":"FL","city":"Clearwater","postal":"33761","priority":1},{"lat":"42.6884897","lng":"-73.8492576","id":7713068,"name":"ZUMIEZ - CROSSGATES MALL","phone":"(518) 218-0818","address":"1 Crossgates Mall Rd. Ste. C-115","state":"NY","city":"Albany","postal":"12203","priority":1},{"lat":"45.5562447","lng":"-94.2101279","id":7713070,"name":"ZUMIEZ - CROSSROADS CENTER","phone":"(320) 654-1864","address":"4101 W. Division St. Ste. B-11","state":"MN","city":"Saint Cloud","postal":"56301","priority":1},{"lat":"36.5840219","lng":"-121.8974125","id":7713073,"name":"ZUMIEZ - DEL MONTE CENTER","phone":"(831) 655-3796","address":"1410 Del Monte Ctr.","state":"CA","city":"Monterey","postal":"93940","priority":1},{"lat":"39.8315323","lng":"-75.0979797","id":7713075,"name":"ZUMIEZ - DEPTFORD MALL","phone":"(856) 848-2411","address":"1750 Deptford Center Rd. Ste. 1090","state":"NJ","city":"Woodbury","postal":"08096","priority":1},{"lat":"33.9313779","lng":"-116.8182134","id":7713077,"name":"ZUMIEZ - DESERT HILLS OUTLET","phone":"(951) 922-3256","address":"48650 Seminole Dr. Ste. 208","state":"CA","city":"Cabazon","postal":"92230","priority":1},{"lat":"61.1437031","lng":"-149.870176","id":7713078,"name":"ZUMIEZ - DIMOND CENTER","phone":"(907) 336-1551","address":"800 E. Dimond Blvd. Ste. 3-149","state":"AK","city":"Anchorage","postal":"99515","priority":1},{"lat":"33.7420005","lng":"-117.8236391","id":7713080,"name":"ZUMIEZ - DISTRICT AT TUSTIN","phone":"714-259-0567","address":"2473 Park Ave.  Ste. B-45","state":"CA","city":"Tustin","postal":"92782","priority":1},{"lat":"37.2420794","lng":"-107.8693091","id":7713082,"name":"ZUMIEZ - DURANGO MALL","phone":"(970) 375-2280","address":"800 S. Camino Del Rio Ste. G-8","state":"CO","city":"Durango","postal":"81301","priority":1},{"lat":"43.1251821","lng":"-89.3057086","id":7713084,"name":"ZUMIEZ - EAST TOWNE","phone":"(608) 249-2369","address":"6 E. Towne Mall Ste. B504","state":"WI","city":"Madison","postal":"53704","priority":1},{"lat":"42.8465171","lng":"-106.2650858","id":7713085,"name":"ZUMIEZ - EASTRIDGE MALL","phone":"(307) 472-3011","address":"601 S.E. Wyoming Blvd. Ste. 1272","state":"WY","city":"Casper","postal":"82609","priority":1},{"lat":"37.3267887","lng":"-121.8173082","id":7713086,"name":"ZUMIEZ - EASTRIDGE MALL, CA","phone":"(408) 238-8571","address":"1 Eastridge Mall Ste. 245","state":"CA","city":"San Jose","postal":"95122","priority":1},{"lat":"32.8048081","lng":"-116.9676624","id":7713088,"name":"ZUMIEZ - EL CAJON","phone":"(619) 401-0397","address":"415 Parkway Plaza","state":"CA","city":"El Cajon","postal":"92020","priority":1},{"lat":"47.9109033","lng":"-122.2126069","id":7713089,"name":"ZUMIEZ - EVERETT MALL","phone":"(425) 347-5435","address":"1402 S.E. Everett Mall Way Ste. 23A","state":"WA","city":"Everett","postal":"98208","priority":1},{"lat":"40.0330736","lng":"-75.6263886","id":7713091,"name":"ZUMIEZ - EXTON SQUARE","phone":"(610) 363-1891","address":"206 Exton Square Pkwy. Ste. 2085","state":"PA","city":"Exton","postal":"19341","priority":1},{"lat":"36.806288","lng":"-119.778608","id":7713092,"name":"ZUMIEZ - FASHION FAIR","phone":"(559) 226-7217","address":"539 E. Shaw Ave.","state":"CA","city":"Fresno","postal":"93710","priority":1},{"lat":"40.6351055","lng":"-111.8848518","id":7713094,"name":"ZUMIEZ - FASHION PLACE MALL","phone":"(801) 262-8284","address":"6191 S. State St. Ste. 319","state":"UT","city":"Murray","postal":"84107","priority":1},{"lat":"33.3895083","lng":"-111.8605382","id":7713096,"name":"ZUMIEZ - FIESTA MALL","phone":"(480) 464-0030","address":"1445 W. Southern Ave. Ste. 2212","state":"AZ","city":"Mesa","postal":"85202","priority":1},{"lat":"32.9513922","lng":"-96.6132614","id":7713098,"name":"ZUMIEZ - FIREWHEEL TOWN CENTER","phone":"(972) 530-4015","address":"265 Coneflower","state":"TX","city":"Garland","postal":"75040","priority":1},{"lat":"35.2233157","lng":"-111.5807629","id":7713100,"name":"ZUMIEZ - FLAGSTAFF MALL","phone":"(928) 527-1377","address":"4650 N. U.S. Hwy. 89 Ste. F-36","state":"AZ","city":"Flagstaff","postal":"86004","priority":1},{"lat":"38.6429713","lng":"-121.1865636","id":7713101,"name":"ZUMIEZ - FOLSOM OUTLET MALL","phone":"(916) 985-2522","address":"13000 Folsom Blvd. Ste. 1200","state":"CA","city":"Folsom","postal":"95630","priority":1},{"lat":"40.5429207","lng":"-105.0741642","id":7713102,"name":"ZUMIEZ - FOOTHILLS MALL","phone":"(970) 266-8022","address":"215 E. Foothills Pkwy. Ste. E11","state":"CO","city":"Fort Collins","postal":"80525","priority":1},{"lat":"26.4881499","lng":"-81.7882712","id":7713104,"name":"ZUMIEZ - FORT MYERS","phone":"(239) 489-3123","address":"9903 Gulf Coast Main St. Ste. G135","state":"FL","city":"Fort Myers","postal":"33913","priority":1},{"lat":"44.2688691","lng":"-88.4701156","id":7713105,"name":"ZUMIEZ - FOX RIVER MALL","phone":"(920) 734-5076","address":"4301 W. Wisconsin Ave. Ste. 324","state":"WI","city":"Appleton","postal":"54913","priority":1},{"lat":"41.7597319","lng":"-88.2169356","id":7713107,"name":"ZUMIEZ - FOX VALLEY MALL","phone":"(630) 236-0876","address":"2026 Fox Valley Center Dr. Ste. C4A","state":"IL","city":"Aurora","postal":"60504","priority":1},{"lat":"40.2519325","lng":"-74.3003857","id":7713108,"name":"ZUMIEZ - FREEHOLD RACEWAY","phone":"(732) 845-2103","address":"3710 Route 9 Ste. E-114","state":"NJ","city":"Freehold","postal":"07728","priority":1},{"lat":"45.6738889","lng":"-111.0775","id":7713110,"name":"ZUMIEZ - GALLATIN VALLEY MALL","phone":"(406) 586-5463","address":"2825 W. Main St. Ste. 9-D","state":"MT","city":"Bozeman","postal":"59718","priority":1},{"lat":"36.066899","lng":"-115.0417357","id":7713112,"name":"ZUMIEZ - GALLERIA AT SUNSET","phone":"(702) 454-9946","address":"1300 W. Sunset Rd. Ste. 1380","state":"NV","city":"Henderson","postal":"89014","priority":1},{"lat":"33.9101158","lng":"-117.4575588","id":7713114,"name":"ZUMIEZ - GALLERIA AT TYLER","phone":"(951) 351-4137","address":"1132 Galleria at Tyler","state":"CA","city":"Riverside","postal":"92503","priority":1},{"lat":"40.7390407","lng":"-73.6128472","id":7713116,"name":"ZUMIEZ - GARDEN CITY","phone":"(516) 739-1895","address":"630 Old Country Rd. Ste. 2007","state":"NY","city":"Garden City","postal":"11530","priority":1},{"lat":"39.5632992","lng":"-107.3640018","id":7713118,"name":"ZUMIEZ - GLENWOOD SPRINGS MALL","phone":"(970) 384-2588","address":"51027 Highway 6 Ste. 15","state":"CO","city":"Glenwood Springs","postal":"81601","priority":1},{"lat":"43.4794047","lng":"-111.9871962","id":7713121,"name":"ZUMIEZ - GRAND TETON MALL","phone":"(208) 525-8642","address":"2300 E. 17th St. Ste. 1174","state":"ID","city":"Idaho Falls","postal":"83404","priority":1},{"lat":"32.96823","lng":"-97.0415897","id":7713122,"name":"ZUMIEZ - GRAPEVINE MILLS MALL","phone":"(972) 874-2409","address":"3000 Grapevine Mills Pkwy. Ste. 6006","state":"TX","city":"Grapevine","postal":"76051","priority":1},{"lat":"37.4183774","lng":"-121.8973846","id":7713123,"name":"ZUMIEZ - GREAT MALL OF THE BAY","phone":"(408) 956-9410","address":"432 Great Mall Dr.","state":"CA","city":"Milpitas","postal":"95035","priority":1},{"lat":"43.188582","lng":"-76.224684","id":7713126,"name":"ZUMIEZ - GREAT NORTHERN MALL","phone":"(315) 622-9789","address":"4155 Route 31 # G-123","state":"NY","city":"Clay","postal":"13041","priority":1},{"lat":"43.2065643","lng":"-77.6904838","id":7713128,"name":"ZUMIEZ - GREECE RIDGE CENTER","phone":"(585) 720-1570","address":"454 Greece Ridge Center Dr.","state":"NY","city":"Rochester","postal":"14626","priority":1},{"lat":"40.3904628","lng":"-104.7120938","id":7713130,"name":"ZUMIEZ - GREELEY MALL","phone":"(970) 356-0608","address":"2068 Greeley Mall","state":"CO","city":"Greeley","postal":"80631","priority":1},{"lat":"45.5060706","lng":"-122.4383594","id":7713131,"name":"ZUMIEZ - GRESHAM STATION","phone":"(503) 491-2280","address":"617 N.W. 12th St.","state":"OR","city":"Gresham","postal":"97030","priority":1},{"lat":"42.388868","lng":"-87.9556689","id":7713134,"name":"ZUMIEZ - GURNEE MILLS","phone":"(847) 856-8483","address":"6170 Grand Ave. Ste. 689","state":"IL","city":"Gurnee","postal":"60031","priority":1},{"lat":"39.453853","lng":"-74.6435064","id":7713135,"name":"ZUMIEZ - HAMILTON MALL","phone":"(609) 272-8960","address":"4403 Black Horse Pike Ste. 1012","state":"NJ","city":"Mays Landing","postal":"08330","priority":1},{"lat":"37.5371917","lng":"-122.3002667","id":7713138,"name":"ZUMIEZ - HILLSDALE","phone":"(650) 571-6494","address":"369 Hillsdale Mall","state":"CA","city":"San Mateo","postal":"94403","priority":1},{"lat":"47.492322","lng":"-111.2887979","id":7713140,"name":"ZUMIEZ - HOLIDAY VILLAGE","phone":"(406) 454-1595","address":"1200 10th Ave. S. Ste. 61","state":"MT","city":"Great Falls","postal":"59405","priority":1},{"lat":"36.2300643","lng":"-119.3360522","id":7713142,"name":"ZUMIEZ - HORIZON OUTLET CENTER","phone":"(559) 688-8935","address":"1719 Retherford St. Ste. E030","state":"CA","city":"Tulare","postal":"93274","priority":1},{"lat":"41.9671268","lng":"-73.9848395","id":7713144,"name":"ZUMIEZ - HUDSON VALLEY MALL","phone":"(845) 336-3382","address":"1300 Ulster Ave. Ste. 246","state":"NY","city":"Kingston","postal":"12401","priority":1},{"lat":"32.6783274","lng":"-97.3984298","id":7713145,"name":"ZUMIEZ - HULEN MALL","phone":"(817) 423-0223","address":"4800 S. Hulen St. Ste. 1570","state":"TX","city":"Fort Worth","postal":"76132","priority":1},{"lat":"29.4685915","lng":"-98.6211784","id":7713146,"name":"ZUMIEZ - INGRAM MALL","phone":"(210) 680-1441","address":"6301 N.W. Loop 410","state":"TX","city":"San Antonio","postal":"78238","priority":1},{"lat":"42.4835813","lng":"-76.4913708","id":7713148,"name":"ZUMIEZ - ITHACA","phone":"(607) 257-0812","address":"40 Catherwood Rd. Ste. 106A","state":"NY","city":"Ithaca","postal":"14850","priority":1},{"lat":"40.1616983","lng":"-74.4173516","id":7713149,"name":"ZUMIEZ - JACKSON","phone":"(732) 928-8203","address":"537 Monmounth Rd. Ste. 190","state":"NJ","city":"Jackson","postal":"08527","priority":1},{"lat":"41.3286166","lng":"-73.8077192","id":7713151,"name":"ZUMIEZ - JEFFERSON VALLEY","phone":"(914) 245-4218","address":"650 Lee Blvd. Ste. F06B","state":"NY","city":"Yorktown Heights","postal":"10598","priority":1},{"lat":"40.6601883","lng":"-74.1713372","id":7713152,"name":"ZUMIEZ - JERSEY GARDENS","phone":"(908) 282-1057","address":"651 Kapkowski Rd. Ste. 2224","state":"NJ","city":"Elizabeth","postal":"07201","priority":1},{"lat":"43.0887433","lng":"-88.7634319","id":7713153,"name":"ZUMIEZ - JOHNSON CREEK","phone":"(920) 699-2473","address":"595 Linmar Ln. Ste. B-120","state":"WI","city":"Johnson Creek","postal":"53038","priority":1},{"lat":"29.7758391","lng":"-95.810334","id":7713155,"name":"ZUMIEZ - KATY MILLS","phone":"(281) 644-4062","address":"5000 Katy Mills Cir. Ste. 722","state":"TX","city":"Katy","postal":"77494","priority":1},{"lat":"47.3842085","lng":"-122.2348948","id":7713156,"name":"ZUMIEZ - KENT STATION","phone":"(253) 859-9660","address":"417 Ramsay Way","state":"WA","city":"Kent","postal":"98032","priority":1},{"lat":"40.0893932","lng":"-75.3860311","id":7713158,"name":"ZUMIEZ - KING OF PRUSSIA","phone":"(610) 337-2379","address":"160 N. Gulph Rd. Ste. 2024","state":"PA","city":"King Of Prussia","postal":"19406","priority":1},{"lat":"47.6576768","lng":"-122.6906121","id":7713159,"name":"ZUMIEZ - KITSAP MALL","phone":"(360) 692-4262","address":"10315 Silverdale Way","state":"WA","city":"Silverdale","postal":"98383","priority":1},{"lat":"40.864162","lng":"-73.1301582","id":7713161,"name":"ZUMIEZ - LAKE GROVE","phone":"(631) 724-9315","address":"313 Smith Haven Mall Ste. C03","state":"NY","city":"Melville","postal":"11775","priority":1},{"lat":"28.0915775","lng":"-81.9780901","id":7713163,"name":"ZUMIEZ - LAKELAND SQUARE","phone":"(863) 815-6425","address":"3800 U.S. Hwy. 98 N. Ste. 340","state":"FL","city":"Lakeland","postal":"33809","priority":1},{"lat":"30.470627","lng":"-97.8075594","id":7713165,"name":"ZUMIEZ - LAKELINE MALL","phone":"(512) 257-1080","address":"11098 Lakestop Blvd.","state":"TX","city":"Cedar Park","postal":"78613","priority":1},{"lat":"33.8502766","lng":"-118.1397869","id":7713167,"name":"ZUMIEZ - LAKEWOOD MALL","phone":"(562) 529-8092","address":"404 Lakewood Center Mall Ste. 374","state":"CA","city":"Lakewood","postal":"90712","priority":1},{"lat":"40.0250832","lng":"-76.2213109","id":7713168,"name":"ZUMIEZ - LANCASTER OUTLET","phone":"(717) 229-3681","address":"311 Stanley K Tanger Blvd.","state":"PA","city":"Lancaster","postal":"17602","priority":1},{"lat":"36.0551342","lng":"-115.1715328","id":7713171,"name":"ZUMIEZ - LAS VEGAS OUTLETS","phone":"(702) 263-7430","address":"7400 Las Vegas Blvd. S. Ste. 206","state":"NV","city":"Las Vegas","postal":"89123","priority":1},{"lat":"41.0784","lng":"-111.9775","id":7713173,"name":"ZUMIEZ - LAYTON HILLS MALL","phone":"(801) 497-0853","address":"1081 Layton Hills Mall","state":"UT","city":"Layton","postal":"84041","priority":1},{"lat":"44.9581492","lng":"-124.0107831","id":7713175,"name":"ZUMIEZ - LINCOLN CITY OUTLET","phone":"(541) 557-1904","address":"1500 S.E. East Devils Lake Rd. Ste. C130","state":"OR","city":"Lincoln City","postal":"97367","priority":1},{"lat":"40.7771625","lng":"-74.353982","id":7713177,"name":"ZUMIEZ - LIVINGSTON","phone":"(973) 992-4621","address":"112 Eisenhower Pkwy Ste. 2015","state":"NJ","city":"Livingston","postal":"07039","priority":1},{"lat":"45.5324541","lng":"-122.6547677","id":7713179,"name":"ZUMIEZ - LLOYD CENTER","phone":"(503) 282-9147","address":"918 Lloyd Center Ste. B-118","state":"OR","city":"Portland","postal":"97232","priority":1},{"lat":"41.5762473","lng":"-88.1655569","id":7713180,"name":"ZUMIEZ - LOUIS JOLIET MALL","phone":"(815) 439-9105","address":"3340 Mall Loop Dr. Ste. 1214","state":"IL","city":"Joliet","postal":"60431","priority":1},{"lat":"42.5940056","lng":"-114.4548831","id":7713182,"name":"ZUMIEZ - MAGIC VALLEY MALL","phone":"(208) 735-1257","address":"1485 Poleline Rd. E. Ste. 103","state":"ID","city":"Twin Falls","postal":"83301","priority":1},{"lat":"33.7757777","lng":"-117.8700388","id":7713183,"name":"ZUMIEZ - MAIN PLACE MALL","phone":"(714) 973-1573","address":"2800 N. Main St. Ste. 724","state":"CA","city":"Santa Ana","postal":"92705","priority":1},{"lat":"39.144259","lng":"-121.6326756","id":7713185,"name":"ZUMIEZ - MALL AT YUBA CITY","phone":"(530) 674-5371","address":"1215 Colusa Ave.","state":"CA","city":"Yuba City","postal":"95991","priority":1},{"lat":"44.977753","lng":"-93.2650108","id":7713187,"name":"ZUMIEZ - MALL OF AMERICA","phone":"(952) 814-9260","address":"240 N. Garden","state":"MN","city":"Minneapolis","postal":"55425","priority":1},{"lat":"45.0314245","lng":"-93.0219876","id":7713189,"name":"ZUMIEZ - MAPLEWOOD MALL","phone":"(651) 748-1142","address":"2029 Maplewood Mall","state":"MN","city":"Saint Paul","postal":"55109","priority":1},{"lat":"43.0844217","lng":"-77.6334572","id":7713191,"name":"ZUMIEZ - MARKETPLACE MALL","phone":"(585) 427-2810","address":"700 Miracle Mile Dr.","state":"NY","city":"Rochester","postal":"14623","priority":1},{"lat":"42.7842587","lng":"-78.8090358","id":7713193,"name":"ZUMIEZ - MCKINLEY MALL","phone":"(716) 823-0718","address":"3701 McKinley Pkwy.","state":"NY","city":"Buffalo","postal":"14219","priority":1},{"lat":"36.1676772","lng":"-115.1964399","id":7713195,"name":"ZUMIEZ - MEADOWS MALL","phone":"(702) 258-4586","address":"4300 Meadow Valley Ln. Ste. 219","state":"NV","city":"Las Vegas","postal":"89107","priority":1},{"lat":"29.7786829","lng":"-95.5358467","id":7713197,"name":"ZUMIEZ - MEMORIAL CITY CENTER","phone":"(713) 468-7748","address":"212 Memorial City","state":"TX","city":"Houston","postal":"77024","priority":1},{"lat":"41.4686826","lng":"-87.3099201","id":7713198,"name":"ZUMIEZ - MERRILVILLE","phone":"(219) 769-6319","address":"2050 Southlake Mall Ste. BL236","state":"IN","city":"Merrillville","postal":"46410","priority":1},{"lat":"39.0916904","lng":"-108.6029569","id":7713201,"name":"ZUMIEZ - MESA MALL","phone":"(970) 257-0222","address":"2424 Highway 6 and 50 Ste. 322","state":"CO","city":"Grand Junction","postal":"81505","priority":1},{"lat":"32.310224","lng":"-106.743022","id":7713203,"name":"ZUMIEZ - MESILLA VALLEY MALL","phone":"(505) 532-0942","address":"700 S. Telshor Blvd. Ste. 1510","state":"NM","city":"Las Cruces","postal":"88011","priority":1},{"lat":"46.8040614","lng":"-92.1596157","id":7713204,"name":"ZUMIEZ - MILLER HILL","phone":"(218) 727-4314","address":"1600 Miller Trunk Hwy. Ste. J-03","state":"MN","city":"Duluth","postal":"55811","priority":1},{"lat":"40.2876987","lng":"-74.0560827","id":7713207,"name":"ZUMIEZ - MONMOUTH MALL","phone":"(732) 542-1478","address":"180 State Route 35 S.","state":"NJ","city":"Eatontown","postal":"07724","priority":1},{"lat":"34.0868238","lng":"-117.6938112","id":7713209,"name":"ZUMIEZ - MONTCLAIRE PLAZA","phone":"(909) 626-9260","address":"5060 E. Montclair Plaza Ln. Ste. 5162","state":"CA","city":"Montclair","postal":"91763","priority":1},{"lat":"40.2343968","lng":"-75.2443079","id":7713210,"name":"ZUMIEZ - MONTGOMERY MALL","phone":"(215) 855-3537","address":"230 Montgomery Mall Ste. 2021","state":"PA","city":"North Wales","postal":"19454","priority":1},